[
  {
    "official_id": "0014168",
    "name": "晴れる屋水戸店",
    "address": "水戸市宮町1丁目7-33 水戸OPA6F",
    "prefecture": "茨城県",
    "lat": 36.3703408,
    "lng": 140.4756988,
    "is_wpn_premium": true,
    "is_teaching_meister": true,
    "status": "active"
  },
  {
    "official_id": "0010444",
    "name": "コミかる高崎店",
    "address": "高崎市江木町333-1",
    "prefecture": "群馬県",
    "lat": 36.32994,
    "lng": 139.01289,
    "is_wpn_premium": true,
    "is_teaching_meister": true,
    "status": "active"
  },
  {
    "official_id": "0010533",
    "name": "コミかる伊勢崎店",
    "address": "伊勢崎市宮子町3420-8",
    "prefecture": "群馬県",
    "lat": 36.33067,
    "lng": 139.1603,
    "is_wpn_premium": true,
    "is_teaching_meister": true,
    "status": "active"
  },
  {
    "official_id": "0006906",
    "name": "スポーツカード＆カードゲームショップMINT 渋谷店",
    "address": "渋谷区宇田川町15-1 B1F",
    "prefecture": "東京都",
    "lat": 35.66212,
    "lng": 139.69894,
    "is_wpn_premium": true,
    "is_teaching_meister": true,
    "status": "active"
  },
  {
    "official_id": "0005731",
    "name": "晴れる屋トーナメントセンター東京",
    "address": "新宿区高田馬場3-12-2 OCビル2F",
    "prefecture": "東京都",
    "lat": 35.71334,
    "lng": 139.70123,
    "is_wpn_premium": true,
    "is_teaching_meister": true,
    "status": "active"
  },
  {
    "official_id": "0013691",
    "name": "晴れる屋吉祥寺店",
    "address": "武蔵野市吉祥寺本町2丁目27-2",
    "prefecture": "東京都",
    "lat": 35.70546,
    "lng": 139.57564,
    "is_wpn_premium": true,
    "is_teaching_meister": true,
    "status": "active"
  },
  {
    "official_id": "0015140",
    "name": "TCG専門店CANTRIP",
    "address": "八王子市三崎町トーネンビル4F-C",
    "prefecture": "東京都",
    "lat": 35.657626,
    "lng": 139.33717,
    "is_wpn_premium": true,
    "is_teaching_meister": true,
    "status": "active"
  },
  {
    "official_id": "0007398",
    "name": "スポーツカード＆カードゲームショップMINT横浜店",
    "address": "横浜市西区高島2丁目19-12 マルイシティ横浜7F",
    "prefecture": "神奈川県",
    "lat": 35.46443,
    "lng": 139.62471,
    "is_wpn_premium": true,
    "is_teaching_meister": true,
    "status": "active"
  },
  {
    "official_id": "0014546",
    "name": "晴れる屋新潟店",
    "address": "新潟市中央区笹口1-10 北都ビル202号室",
    "prefecture": "新潟県",
    "lat": 37.910673,
    "lng": 139.06881,
    "is_wpn_premium": true,
    "is_teaching_meister": true,
    "status": "active"
  },
  {
    "official_id": "0011874",
    "name": "晴れる屋静岡店",
    "address": "静岡市葵区伝馬町10-25 中央ビル5F",
    "prefecture": "静岡県",
    "lat": 34.9749,
    "lng": 138.38889,
    "is_wpn_premium": true,
    "is_teaching_meister": true,
    "status": "active"
  },
  {
    "official_id": "0011646",
    "name": "晴れる屋名古屋店",
    "address": "名古屋市中村区椿町21-5 桜木ビル4F",
    "prefecture": "愛知県",
    "lat": 35.16794,
    "lng": 136.8793,
    "is_wpn_premium": true,
    "is_teaching_meister": true,
    "status": "active"
  },
  {
    "official_id": "0006097",
    "name": "アップキープ",
    "address": "半田市一本木町三丁目103-1",
    "prefecture": "愛知県",
    "lat": 34.9223726,
    "lng": 136.9544702,
    "is_wpn_premium": true,
    "is_teaching_meister": true,
    "status": "active"
  },
  {
    "official_id": "0007659",
    "name": "カードボックス津店",
    "address": "津市一身田上津部田口ノ坪115-1",
    "prefecture": "三重県",
    "lat": 34.74828,
    "lng": 136.50235,
    "is_wpn_premium": true,
    "is_teaching_meister": true,
    "status": "active"
  },
  {
    "official_id": "0009799",
    "name": "晴れる屋トーナメントセンター大阪",
    "address": "大阪市北区梅田1-11-4 大阪駅前第4ビル2F",
    "prefecture": "大阪府",
    "lat": 34.699897,
    "lng": 135.498827,
    "is_wpn_premium": true,
    "is_teaching_meister": true,
    "status": "active"
  },
  {
    "official_id": "0014195",
    "name": "晴れる屋日本橋店",
    "address": "大阪市浪速区難波中2丁目2-15 高砂ビル2F",
    "prefecture": "大阪府",
    "lat": 34.66306,
    "lng": 135.50322,
    "is_wpn_premium": true,
    "is_teaching_meister": true,
    "status": "active"
  },
  {
    "official_id": "0007091",
    "name": "ドラゴンスターオタロード中央 マジック：ザ・ギャザリング専門店",
    "address": "大阪市浪速区難波中2-5-10",
    "prefecture": "大阪府",
    "lat": 34.662344,
    "lng": 135.504336,
    "is_wpn_premium": true,
    "is_teaching_meister": true,
    "status": "active"
  },
  {
    "official_id": "0007399",
    "name": "BIG MAGICなんば店",
    "address": "大阪市浪速区難波中2-4-15 興伸ビル1F",
    "prefecture": "大阪府",
    "lat": 34.66276,
    "lng": 135.50422,
    "is_wpn_premium": true,
    "is_teaching_meister": true,
    "status": "active"
  },
  {
    "official_id": "0011073",
    "name": "スポーツカード＆カードゲームショップMINT三宮店",
    "address": "神戸市中央区三宮町1-5-10 三宮オーパ別館",
    "prefecture": "兵庫県",
    "lat": 34.69156,
    "lng": 135.1938,
    "is_wpn_premium": true,
    "is_teaching_meister": true,
    "status": "active"
  },
  {
    "official_id": "0005619",
    "name": "カードショップ若院",
    "address": "岡山市北区大供1-3-8",
    "prefecture": "岡山県",
    "lat": 34.65613,
    "lng": 133.92235,
    "is_wpn_premium": true,
    "is_teaching_meister": true,
    "status": "active"
  },
  {
    "official_id": "0013617",
    "name": "晴れる屋広島店",
    "address": "広島市中区紙屋町1-1-1",
    "prefecture": "広島県",
    "lat": 34.39444,
    "lng": 132.45981,
    "is_wpn_premium": true,
    "is_teaching_meister": true,
    "status": "active"
  },
  {
    "official_id": "0010585",
    "name": "晴れる屋福岡店",
    "address": "福岡市中央区大名2-1-53 天神吉田ビル6F",
    "prefecture": "福岡県",
    "lat": 33.58893,
    "lng": 130.39595,
    "is_wpn_premium": true,
    "is_teaching_meister": true,
    "status": "active"
  },
  {
    "official_id": "0013245",
    "name": "MUGEN TABLE GAMES",
    "address": "熊本市中央区琴平1-12-7 グランシティ琴平 102",
    "prefecture": "熊本県",
    "lat": 32.78714,
    "lng": 130.70883,
    "is_wpn_premium": true,
    "is_teaching_meister": true,
    "status": "active"
  },
  {
    "official_id": "0013627",
    "name": "晴れる屋郡山店",
    "address": "郡山市駅前1丁目16-7 アティ郡山8",
    "prefecture": "福島県",
    "lat": 37.397,
    "lng": 140.38727,
    "is_wpn_premium": false,
    "is_teaching_meister": false,
    "status": "active"
  },
  {
    "official_id": "0006936",
    "name": "東京MTG",
    "address": "千代田区神田岩本町1-1 岩本町ビル5F",
    "prefecture": "東京都",
    "lat": 35.69606,
    "lng": 139.774963,
    "is_wpn_premium": false,
    "is_teaching_meister": false,
    "status": "active"
  },
  {
    "official_id": "0006080",
    "name": "フルコンプ八王子店",
    "address": "八王子市旭町7-1 豊栄第一ビル3階",
    "prefecture": "東京都",
    "lat": 35.65706,
    "lng": 139.33794,
    "is_wpn_premium": false,
    "is_teaching_meister": false,
    "status": "active"
  },
  {
    "official_id": "0013956",
    "name": "晴れる屋川崎店",
    "address": "川崎市川崎区小川町15-13 川崎トーセイビル6階",
    "prefecture": "神奈川県",
    "lat": 35.52772,
    "lng": 139.69975,
    "is_wpn_premium": false,
    "is_teaching_meister": false,
    "status": "active"
  },
  {
    "official_id": "0009388",
    "name": "カードボックス名張店",
    "address": "名張市夏見3303",
    "prefecture": "三重県",
    "lat": 34.62031,
    "lng": 136.10325,
    "is_wpn_premium": false,
    "is_teaching_meister": false,
    "status": "active"
  },
  {
    "official_id": "0008102",
    "name": "カードボックス京都店",
    "address": "京都市下京区七条通烏丸東入真苧屋町214番地 京都駅前第5ビル3階",
    "prefecture": "京都府",
    "lat": 34.9877,
    "lng": 135.7589,
    "is_wpn_premium": false,
    "is_teaching_meister": false,
    "status": "active"
  },
  {
    "official_id": "0008910",
    "name": "蓮屋",
    "address": "大阪市浪速区難波中2丁目2-15高砂ビル 5F",
    "prefecture": "大阪府",
    "lat": 34.663046,
    "lng": 135.503232,
    "is_wpn_premium": false,
    "is_teaching_meister": false,
    "status": "active"
  },
  {
    "official_id": "0013848",
    "name": "晴れる屋三宮店",
    "address": "神戸市中央区三宮1-9-1 センタープラザ203",
    "prefecture": "兵庫県",
    "lat": 34.69183,
    "lng": 135.19246,
    "is_wpn_premium": false,
    "is_teaching_meister": false,
    "status": "active"
  },
  {
    "official_id": "0010396",
    "name": "デュエルスペースちくたくハウス",
    "address": "室蘭市中島町3-17-7",
    "prefecture": "北海道",
    "lat": 42.35142,
    "lng": 141.02187,
    "is_wpn_premium": false,
    "is_teaching_meister": true,
    "status": "active"
  },
  {
    "official_id": "0007545",
    "name": "駄菓子のたまや",
    "address": "岩手郡雫石町長山猿子11-30 グリーンガレージ2F",
    "prefecture": "岩手県",
    "lat": 39.72601,
    "lng": 140.96706,
    "is_wpn_premium": false,
    "is_teaching_meister": true,
    "status": "active"
  },
  {
    "official_id": "0011104",
    "name": "バラエティーショップDON",
    "address": "久慈市中央4-3",
    "prefecture": "岩手県",
    "lat": 40.18945,
    "lng": 141.76948,
    "is_wpn_premium": false,
    "is_teaching_meister": true,
    "status": "active"
  },
  {
    "official_id": "0009893",
    "name": "MTG専門店シングルスター",
    "address": "仙台市青葉区中央2-1-30 須田ビル3F A",
    "prefecture": "宮城県",
    "lat": 38.26153,
    "lng": 140.87864,
    "is_wpn_premium": false,
    "is_teaching_meister": true,
    "status": "active"
  },
  {
    "official_id": "0012599",
    "name": "晴れる屋仙台店",
    "address": "仙台市青葉区一番町3-1-24 4F4C",
    "prefecture": "宮城県",
    "lat": 38.26067,
    "lng": 140.87413,
    "is_wpn_premium": false,
    "is_teaching_meister": true,
    "status": "active"
  },
  {
    "official_id": "0009902",
    "name": "タンヨ玩具店",
    "address": "塩竈市本町6-9",
    "prefecture": "宮城県",
    "lat": 38.31625,
    "lng": 141.01886,
    "is_wpn_premium": false,
    "is_teaching_meister": true,
    "status": "active"
  },
  {
    "official_id": "0010337",
    "name": "カードTVゲームショップりらい",
    "address": "福島市太田町14-42 尾形ビル1F",
    "prefecture": "福島県",
    "lat": 37.75197,
    "lng": 140.4573,
    "is_wpn_premium": false,
    "is_teaching_meister": true,
    "status": "active"
  },
  {
    "official_id": "0010298",
    "name": "WonderGOOつくば",
    "address": "つくば市研究学園A65街区1",
    "prefecture": "茨城県",
    "lat": 36.08481,
    "lng": 140.09316,
    "is_wpn_premium": false,
    "is_teaching_meister": true,
    "status": "active"
  },
  {
    "official_id": "0013529",
    "name": "晴れる屋宇都宮店",
    "address": "宇都宮市馬場通り2-3-12 MEGAドン・キホーテラパーク宇都宮 4F",
    "prefecture": "栃木県",
    "lat": 36.56077,
    "lng": 139.88531,
    "is_wpn_premium": false,
    "is_teaching_meister": true,
    "status": "active"
  },
  {
    "official_id": "0010064",
    "name": "Booksながしま",
    "address": "高崎市箕郷町生原589-4",
    "prefecture": "群馬県",
    "lat": 36.39609,
    "lng": 138.96671,
    "is_wpn_premium": false,
    "is_teaching_meister": true,
    "status": "active"
  },
  {
    "official_id": "0013448",
    "name": "晴れる屋大宮店",
    "address": "さいたま市大宮区大門町2-11 プロスパーワンビル5F",
    "prefecture": "埼玉県",
    "lat": 35.90825,
    "lng": 139.62749,
    "is_wpn_premium": false,
    "is_teaching_meister": true,
    "status": "active"
  },
  {
    "official_id": "0015475",
    "name": "晴れる屋千葉店",
    "address": "千葉市中央区富士見2-2-3 吉田興業第一ビル5-A",
    "prefecture": "千葉県",
    "lat": 35.612061,
    "lng": 140.115933,
    "is_wpn_premium": false,
    "is_teaching_meister": true,
    "status": "active"
  },
  {
    "official_id": "0006483",
    "name": "晴れる屋成田店",
    "address": "成田市不動ケ岡1120-4",
    "prefecture": "千葉県",
    "lat": 35.77154,
    "lng": 140.30926,
    "is_wpn_premium": false,
    "is_teaching_meister": true,
    "status": "active"
  },
  {
    "official_id": "0015514",
    "name": "ディーカルテン・ラボラトリー大網",
    "address": "大網白里市駒込1375-5 深澤ビル201",
    "prefecture": "千葉県",
    "lat": 35.518909,
    "lng": 140.311885,
    "is_wpn_premium": false,
    "is_teaching_meister": true,
    "status": "active"
  },
  {
    "official_id": "0011421",
    "name": "CARD WINGS 秋葉原駅前店",
    "address": "千代田区外神田1-15-15",
    "prefecture": "東京都",
    "lat": 35.69787,
    "lng": 139.77219,
    "is_wpn_premium": false,
    "is_teaching_meister": true,
    "status": "active"
  },
  {
    "official_id": "0012418",
    "name": "晴れる屋秋葉原店",
    "address": "千代田区外神田1-14-1 宝田中央通りビル8F",
    "prefecture": "東京都",
    "lat": 35.69834,
    "lng": 139.7715,
    "is_wpn_premium": false,
    "is_teaching_meister": true,
    "status": "active"
  },
  {
    "official_id": "0014193",
    "name": "ドラゴンスター秋葉原駅前店",
    "address": "千代田区外神田1-18-18 BiTO AKIBA PLAZA 6F",
    "prefecture": "東京都",
    "lat": 35.69876,
    "lng": 139.7723,
    "is_wpn_premium": false,
    "is_teaching_meister": true,
    "status": "active"
  },
  {
    "official_id": "0007756",
    "name": "秋葉原あずまや",
    "address": "千代田区外神田1-6-3 熊谷ビル3F",
    "prefecture": "東京都",
    "lat": 35.69967,
    "lng": 139.76942,
    "is_wpn_premium": false,
    "is_teaching_meister": true,
    "status": "active"
  },
  {
    "official_id": "0016803",
    "name": "MINT GAMES MTG",
    "address": "中央区日本橋馬喰町1-6-7",
    "prefecture": "東京都",
    "lat": 35.693383,
    "lng": 139.782603,
    "is_wpn_premium": false,
    "is_teaching_meister": true,
    "status": "active"
  },
  {
    "official_id": "0016728",
    "name": "Card Pot",
    "address": "台東区上野2-11-12 上野TKSビル4F",
    "prefecture": "東京都",
    "lat": 35.709344,
    "lng": 139.770018,
    "is_wpn_premium": false,
    "is_teaching_meister": true,
    "status": "active"
  },
  {
    "official_id": "0015679",
    "name": "晴れる屋渋谷店",
    "address": "渋谷区渋谷3丁目10-14 長崎堂ビル8F",
    "prefecture": "東京都",
    "lat": 35.65689182087352,
    "lng": 139.70495964751893,
    "is_wpn_premium": false,
    "is_teaching_meister": true,
    "status": "active"
  },
  {
    "official_id": "0005960",
    "name": "カフェ＆ゲームバーことぶき",
    "address": "杉並区今川4-28-20 ハイツハルキチ寿館101",
    "prefecture": "東京都",
    "lat": 35.71739,
    "lng": 139.60198,
    "is_wpn_premium": false,
    "is_teaching_meister": true,
    "status": "active"
  },
  {
    "official_id": "0007243",
    "name": "ゲームショップとど",
    "address": "新宿区高田馬場3-3-9 山下ビル5F",
    "prefecture": "東京都",
    "lat": 35.71348,
    "lng": 139.70157,
    "is_wpn_premium": false,
    "is_teaching_meister": true,
    "status": "active"
  },
  {
    "official_id": "0015153",
    "name": "MINTGAMES池袋店",
    "address": "豊島区東池袋1-50-35池袋P’PARCO2F",
    "prefecture": "東京都",
    "lat": 35.731792,
    "lng": 139.712419,
    "is_wpn_premium": false,
    "is_teaching_meister": true,
    "status": "active"
  },
  {
    "official_id": "0007109",
    "name": "BIG MAGIC池袋店",
    "address": "豊島区東池袋1-22-13 近代ビル11号館6F",
    "prefecture": "東京都",
    "lat": 35.72978,
    "lng": 139.71597,
    "is_wpn_premium": false,
    "is_teaching_meister": true,
    "status": "active"
  },
  {
    "official_id": "0007684",
    "name": "スポーツカード＆カードゲームショップMINT吉祥寺店",
    "address": "武蔵野市吉祥寺本町1-5-1 吉祥寺パルコ5F",
    "prefecture": "東京都",
    "lat": 35.7036,
    "lng": 139.57791,
    "is_wpn_premium": false,
    "is_teaching_meister": true,
    "status": "active"
  },
  {
    "official_id": "0008801",
    "name": "マスターズスクウェア",
    "address": "八王子市東町12-15 第5セントラルビル6F",
    "prefecture": "東京都",
    "lat": 35.658036,
    "lng": 139.338139,
    "is_wpn_premium": false,
    "is_teaching_meister": true,
    "status": "active"
  },
  {
    "official_id": "0018104",
    "name": "TSUTAYA Trading Card 平塚",
    "address": "平塚市天沼10-1 ららぽーと湘南平塚3階",
    "prefecture": "神奈川県",
    "lat": 35.336808,
    "lng": 139.356981,
    "is_wpn_premium": false,
    "is_teaching_meister": true,
    "status": "active"
  },
  {
    "official_id": "0007435",
    "name": "Cards of Paradise桜木店",
    "address": "新潟市中央区女池2-3-18",
    "prefecture": "新潟県",
    "lat": 37.89427,
    "lng": 139.0461,
    "is_wpn_premium": false,
    "is_teaching_meister": true,
    "status": "active"
  },
  {
    "official_id": "0007896",
    "name": "ゲーム館ビート",
    "address": "五泉市吉沢1-5-26",
    "prefecture": "新潟県",
    "lat": 37.73802,
    "lng": 139.17882,
    "is_wpn_premium": false,
    "is_teaching_meister": true,
    "status": "active"
  },
  {
    "official_id": "0013897",
    "name": "晴れる屋甲府店",
    "address": "甲府市丸の内2-29-6 和光電機ビル6F",
    "prefecture": "山梨県",
    "lat": 35.66359,
    "lng": 138.56752,
    "is_wpn_premium": false,
    "is_teaching_meister": true,
    "status": "active"
  },
  {
    "official_id": "0005791",
    "name": "TCGショップMAG",
    "address": "飯田市座光寺3901-1",
    "prefecture": "長野県",
    "lat": 35.52936,
    "lng": 137.85953,
    "is_wpn_premium": false,
    "is_teaching_meister": true,
    "status": "active"
  },
  {
    "official_id": "0012704",
    "name": "blank hair salon",
    "address": "富山市野々上57-3",
    "prefecture": "富山県",
    "lat": 36.72154,
    "lng": 137.1421,
    "is_wpn_premium": false,
    "is_teaching_meister": true,
    "status": "active"
  },
  {
    "official_id": "0006149",
    "name": "ドンキー",
    "address": "下新川郡朝日町泊377",
    "prefecture": "富山県",
    "lat": 36.95671,
    "lng": 137.55913,
    "is_wpn_premium": false,
    "is_teaching_meister": true,
    "status": "active"
  },
  {
    "official_id": "0014922",
    "name": "晴れる屋金沢店",
    "address": "金沢市福久2丁目58番地 イオン金沢店 3F",
    "prefecture": "石川県",
    "lat": 36.617254,
    "lng": 136.681407,
    "is_wpn_premium": false,
    "is_teaching_meister": true,
    "status": "active"
  },
  {
    "official_id": "0007429",
    "name": "ファミコンランド小松店",
    "address": "小松市園町ハ127-1",
    "prefecture": "石川県",
    "lat": 36.40546,
    "lng": 136.45896,
    "is_wpn_premium": false,
    "is_teaching_meister": true,
    "status": "active"
  },
  {
    "official_id": "0007031",
    "name": "マスターズギルド",
    "address": "浜松市中区常盤町143-18 ECOビル2F",
    "prefecture": "静岡県",
    "lat": 34.71014,
    "lng": 137.73304,
    "is_wpn_premium": false,
    "is_teaching_meister": true,
    "status": "active"
  },
  {
    "official_id": "0007537",
    "name": "マスターズギルドなゆた",
    "address": "浜松市浜北区貴布祢3000 なゆた浜北1F",
    "prefecture": "静岡県",
    "lat": 34.79163,
    "lng": 137.78328,
    "is_wpn_premium": false,
    "is_teaching_meister": true,
    "status": "active"
  },
  {
    "official_id": "0006886",
    "name": "ゲームショップコロッサス",
    "address": "袋井市永楽町181 土屋ビル2F",
    "prefecture": "静岡県",
    "lat": 34.74942,
    "lng": 137.92147,
    "is_wpn_premium": false,
    "is_teaching_meister": true,
    "status": "active"
  },
  {
    "official_id": "0013340",
    "name": "すまいるキング岡崎店",
    "address": "岡崎市岡崎駅南土地区画整理52街区1番",
    "prefecture": "愛知県",
    "lat": 34.91472,
    "lng": 137.14901,
    "is_wpn_premium": false,
    "is_teaching_meister": true,
    "status": "active"
  },
  {
    "official_id": "0016636",
    "name": "スポーツカード＆カードゲームショップMINT 名古屋店",
    "address": "名古屋市中区栄3丁目18-1 ナディアパーク ビジネスセンタービル 6F",
    "prefecture": "愛知県",
    "lat": 35.16571,
    "lng": 136.90588,
    "is_wpn_premium": false,
    "is_teaching_meister": true,
    "status": "active"
  },
  {
    "official_id": "0009695",
    "name": "ホビーステーション名古屋大須本店",
    "address": "名古屋市中区大須3-32-23 Zeque大須6階",
    "prefecture": "愛知県",
    "lat": 35.15842,
    "lng": 136.90485,
    "is_wpn_premium": false,
    "is_teaching_meister": true,
    "status": "active"
  },
  {
    "official_id": "0006558",
    "name": "こども楽園",
    "address": "多治見市本町4-60-1",
    "prefecture": "岐阜県",
    "lat": 35.3356,
    "lng": 137.12663,
    "is_wpn_premium": false,
    "is_teaching_meister": true,
    "status": "active"
  },
  {
    "official_id": "0008381",
    "name": "フェイズ四日市店",
    "address": "四日市市富田2-13-2",
    "prefecture": "三重県",
    "lat": 35.00558,
    "lng": 136.65518,
    "is_wpn_premium": false,
    "is_teaching_meister": true,
    "status": "active"
  },
  {
    "official_id": "0006435",
    "name": "ゲームプラザ元気302",
    "address": "大津市今堅田2-40-25",
    "prefecture": "滋賀県",
    "lat": 35.12423,
    "lng": 135.91874,
    "is_wpn_premium": false,
    "is_teaching_meister": true,
    "status": "active"
  },
  {
    "official_id": "0009383",
    "name": "ゲームショップブリックス",
    "address": "京都市右京区西院三蔵町26-1",
    "prefecture": "京都府",
    "lat": 35.00218,
    "lng": 135.73303,
    "is_wpn_premium": false,
    "is_teaching_meister": true,
    "status": "active"
  },
  {
    "official_id": "0013896",
    "name": "カードボックスオーサカ店",
    "address": "大阪市北区梅田2-4-9 ブリーゼブリーゼ4F",
    "prefecture": "大阪府",
    "lat": 34.69853,
    "lng": 135.49389,
    "is_wpn_premium": false,
    "is_teaching_meister": true,
    "status": "active"
  },
  {
    "official_id": "0006088",
    "name": "スポーツカード＆カードゲームショップMINT梅田店",
    "address": "大阪市北区芝田1-1-3 阪急三番街北館 B1F",
    "prefecture": "大阪府",
    "lat": 34.70418,
    "lng": 135.49761,
    "is_wpn_premium": false,
    "is_teaching_meister": true,
    "status": "active"
  },
  {
    "official_id": "0010573",
    "name": "カードショップふらっと",
    "address": "大阪市北区中津1-2-21 共栄ファイブビル601",
    "prefecture": "大阪府",
    "lat": 34.70953,
    "lng": 135.49594,
    "is_wpn_premium": false,
    "is_teaching_meister": true,
    "status": "active"
  },
  {
    "official_id": "0013899",
    "name": "カードショップフロンティア天六",
    "address": "大阪市都島区都島本通1-1-1 8R BLD BF1",
    "prefecture": "大阪府",
    "lat": 34.7084707,
    "lng": 135.5194621,
    "is_wpn_premium": false,
    "is_teaching_meister": true,
    "status": "active"
  },
  {
    "official_id": "0009130",
    "name": "カードボックス高槻店",
    "address": "高槻市北園町19-12",
    "prefecture": "大阪府",
    "lat": 34.84961,
    "lng": 135.62194,
    "is_wpn_premium": false,
    "is_teaching_meister": true,
    "status": "active"
  },
  {
    "official_id": "0005749",
    "name": "Table Game Cafe Shuffle",
    "address": "寝屋川市初町20-10",
    "prefecture": "大阪府",
    "lat": 34.76099,
    "lng": 135.62796,
    "is_wpn_premium": false,
    "is_teaching_meister": true,
    "status": "active"
  },
  {
    "official_id": "0015094",
    "name": "多目的カフェ&バー「花唐草」",
    "address": "富田林市須賀2-19-11-2F",
    "prefecture": "大阪府",
    "lat": 34.478467,
    "lng": 135.562673,
    "is_wpn_premium": false,
    "is_teaching_meister": true,
    "status": "active"
  },
  {
    "official_id": "0005766",
    "name": "TCG/ボードゲームCafe＆Bar TOM 大阪堺本店",
    "address": "堺市堺区戎之町東3丁1-9 オクムラビル2F",
    "prefecture": "大阪府",
    "lat": 34.57914,
    "lng": 135.47745,
    "is_wpn_premium": false,
    "is_teaching_meister": true,
    "status": "active"
  },
  {
    "official_id": "0007850",
    "name": "ジュークボックス",
    "address": "堺市北区蔵前町1-7-11 金岡Eビル101B",
    "prefecture": "大阪府",
    "lat": 34.57489,
    "lng": 135.51038,
    "is_wpn_premium": false,
    "is_teaching_meister": true,
    "status": "active"
  },
  {
    "official_id": "0005906",
    "name": "アノアデザインのMTG",
    "address": "和泉市府中町1-9-1 2F",
    "prefecture": "大阪府",
    "lat": 34.48734,
    "lng": 135.426,
    "is_wpn_premium": false,
    "is_teaching_meister": true,
    "status": "active"
  },
  {
    "official_id": "0008391",
    "name": "CARD SHOP蒼猫亭",
    "address": "神戸市中央区北長狭通3-7-11 サニーハイツ鯉川902",
    "prefecture": "兵庫県",
    "lat": 34.69159,
    "lng": 135.18791,
    "is_wpn_premium": false,
    "is_teaching_meister": true,
    "status": "active"
  },
  {
    "official_id": "0016085",
    "name": "ぎゃざりんぐスペース アンパラ",
    "address": "加古川市米田町平津426-1 ライフビル3階",
    "prefecture": "兵庫県",
    "lat": 34.78553,
    "lng": 134.813954,
    "is_wpn_premium": false,
    "is_teaching_meister": true,
    "status": "active"
  },
  {
    "official_id": "0006443",
    "name": "しかのつの",
    "address": "奈良市大宮町6-1-10 松井ビル3F北",
    "prefecture": "奈良県",
    "lat": 34.68479,
    "lng": 135.81157,
    "is_wpn_premium": false,
    "is_teaching_meister": true,
    "status": "active"
  },
  {
    "official_id": "0011298",
    "name": "Play First Games",
    "address": "出雲市渡橋町366-6",
    "prefecture": "島根県",
    "lat": 35.36911760781905,
    "lng": 132.74731847790977,
    "is_wpn_premium": false,
    "is_teaching_meister": true,
    "status": "active"
  },
  {
    "official_id": "0009705",
    "name": "ジョニーのお店",
    "address": "広島市中区土橋町4-18 TFRビル2F",
    "prefecture": "広島県",
    "lat": 34.39298,
    "lng": 132.4465,
    "is_wpn_premium": false,
    "is_teaching_meister": true,
    "status": "active"
  },
  {
    "official_id": "0007823",
    "name": "ドラグーン周南店",
    "address": "周南市古市1-4-1",
    "prefecture": "山口県",
    "lat": 34.06804,
    "lng": 131.75908,
    "is_wpn_premium": false,
    "is_teaching_meister": true,
    "status": "active"
  },
  {
    "official_id": "0013129",
    "name": "晴れる屋高松店",
    "address": "高松市上天神町562-1 2F",
    "prefecture": "香川県",
    "lat": 34.31305,
    "lng": 134.03742,
    "is_wpn_premium": false,
    "is_teaching_meister": true,
    "status": "active"
  },
  {
    "official_id": "0010536",
    "name": "G-PROJECT本店",
    "address": "北九州市八幡西区藤田4-2-18 横尾ビル3F",
    "prefecture": "福岡県",
    "lat": 33.86463,
    "lng": 130.77041,
    "is_wpn_premium": false,
    "is_teaching_meister": true,
    "status": "active"
  },
  {
    "official_id": "0010208",
    "name": "イエローサブマリンマジッカーズ福岡店",
    "address": "福岡市中央区天神2-7-14 天神シティビル3F",
    "prefecture": "福岡県",
    "lat": 33.58998,
    "lng": 130.39616,
    "is_wpn_premium": false,
    "is_teaching_meister": true,
    "status": "active"
  },
  {
    "official_id": "0007131",
    "name": "スポーツカード＆カードゲームショップMINT 福岡店",
    "address": "福岡市中央区大名1-10-29 STAGE1大名6F",
    "prefecture": "福岡県",
    "lat": 33.58718,
    "lng": 130.39391,
    "is_wpn_premium": false,
    "is_teaching_meister": true,
    "status": "active"
  },
  {
    "official_id": "0013022",
    "name": "元野木書店",
    "address": "飯塚市飯塚18-3",
    "prefecture": "福岡県",
    "lat": 33.63696,
    "lng": 130.6846,
    "is_wpn_premium": false,
    "is_teaching_meister": true,
    "status": "active"
  },
  {
    "official_id": "0013442",
    "name": "あそびカフェセタシア",
    "address": "諫早市栄町3-25 酒井ビル一階",
    "prefecture": "長崎県",
    "lat": 32.84295,
    "lng": 130.05538,
    "is_wpn_premium": false,
    "is_teaching_meister": true,
    "status": "active"
  },
  {
    "official_id": "0007052",
    "name": "カードプレイス大分店",
    "address": "大分市府内町2-5-40 盛文堂ビル4F",
    "prefecture": "大分県",
    "lat": 33.23641,
    "lng": 131.61042,
    "is_wpn_premium": false,
    "is_teaching_meister": true,
    "status": "active"
  },
  {
    "official_id": "0009425",
    "name": "カードショップBig Red",
    "address": "宮崎市清武町加納甲2669-2 オートパークSKY店内",
    "prefecture": "宮崎県",
    "lat": 31.87209,
    "lng": 131.39421,
    "is_wpn_premium": false,
    "is_teaching_meister": true,
    "status": "active"
  },
  {
    "official_id": "0018063",
    "name": "スポーツカード＆カードゲームショップMINT 沖縄店",
    "address": "中頭郡北中城村ライカム1番地イオンモール沖縄ライカム4F",
    "prefecture": "沖縄県",
    "lat": 26.3139271,
    "lng": 127.7967008,
    "is_wpn_premium": false,
    "is_teaching_meister": true,
    "status": "active"
  },
  {
    "official_id": "0008992",
    "name": "ABSOLUTE ZERO",
    "address": "中頭郡中城村南上原816 南マンション107",
    "prefecture": "沖縄県",
    "lat": 26.24774,
    "lng": 127.7705,
    "is_wpn_premium": false,
    "is_teaching_meister": true,
    "status": "active"
  },
  {
    "official_id": "0016548",
    "name": "マンガ倉庫泡瀬店",
    "address": "沖縄市与儀3丁目13-1",
    "prefecture": "沖縄県",
    "lat": 26.3073556,
    "lng": 127.8196872,
    "is_wpn_premium": false,
    "is_teaching_meister": true,
    "status": "active"
  },
  {
    "official_id": "0009618",
    "name": "トイパラダイス具志川店",
    "address": "うるま市田場1772-1",
    "prefecture": "沖縄県",
    "lat": 26.37288,
    "lng": 127.85875,
    "is_wpn_premium": false,
    "is_teaching_meister": true,
    "status": "active"
  },
  {
    "official_id": "0015181",
    "name": "ゲームアーク宝島麻生駅前店",
    "address": "札幌市北区北40条西5丁目5-20 石橋ビル2Ｆ",
    "prefecture": "北海道",
    "lat": 43.10929,
    "lng": 141.33757,
    "is_wpn_premium": false,
    "is_teaching_meister": false,
    "status": "active"
  },
  {
    "official_id": "0010182",
    "name": "GAME＆BAR Vintage",
    "address": "札幌市白石区南郷通南1-10-15 サウスヒル地下ホワイト広場",
    "prefecture": "北海道",
    "lat": 43.04515,
    "lng": 141.3982,
    "is_wpn_premium": false,
    "is_teaching_meister": false,
    "status": "active"
  },
  {
    "official_id": "0007672",
    "name": "函館蔦屋書店",
    "address": "函館市石川町85-1",
    "prefecture": "北海道",
    "lat": 41.83073,
    "lng": 140.73565,
    "is_wpn_premium": false,
    "is_teaching_meister": false,
    "status": "active"
  },
  {
    "official_id": "0018159",
    "name": "文教堂 函館昭和店",
    "address": "函館市昭和1丁目29番3号",
    "prefecture": "北海道",
    "lat": 41.818979,
    "lng": 140.74247,
    "is_wpn_premium": false,
    "is_teaching_meister": false,
    "status": "active"
  },
  {
    "official_id": "0011731",
    "name": "晴れる屋札幌店",
    "address": "札幌市中央区南二条西2-11 札幌NSビル8F",
    "prefecture": "北海道",
    "lat": 43.0584,
    "lng": 141.35515,
    "is_wpn_premium": false,
    "is_teaching_meister": false,
    "status": "active"
  },
  {
    "official_id": "0018711",
    "name": "カードショップBAHAMUT",
    "address": "札幌市中央区南2条西5丁目13-64　コクミン2F",
    "prefecture": "北海道",
    "lat": 43.056983,
    "lng": 141.35016,
    "is_wpn_premium": false,
    "is_teaching_meister": false,
    "status": "active"
  },
  {
    "official_id": "0010188",
    "name": "イエローサブマリン札幌GAME SHOP",
    "address": "札幌市中央区南三条西4-12 アルシュ4F",
    "prefecture": "北海道",
    "lat": 43.05698,
    "lng": 141.35256,
    "is_wpn_premium": false,
    "is_teaching_meister": false,
    "status": "active"
  },
  {
    "official_id": "0006847",
    "name": "アメニティードリーム札幌店",
    "address": "札幌市中央区南三条西3-11 N.MESSEビルB1F",
    "prefecture": "北海道",
    "lat": 43.05704,
    "lng": 141.35431,
    "is_wpn_premium": false,
    "is_teaching_meister": false,
    "status": "active"
  },
  {
    "official_id": "0007107",
    "name": "スポーツカード＆カードゲームショップMINT札幌店",
    "address": "札幌市中央区南3条西4-12-1 アルシュ4F",
    "prefecture": "北海道",
    "lat": 43.05692,
    "lng": 141.35262,
    "is_wpn_premium": false,
    "is_teaching_meister": false,
    "status": "active"
  },
  {
    "official_id": "0006540",
    "name": "TCGスナックてぶくろ",
    "address": "札幌市西区琴似1条4-4-27 NYビル2F",
    "prefecture": "北海道",
    "lat": 43.07659,
    "lng": 141.30479,
    "is_wpn_premium": false,
    "is_teaching_meister": false,
    "status": "active"
  },
  {
    "official_id": "0005644",
    "name": "カードショップ宝島千歳店",
    "address": "千歳市花園5-6-7 エルドラード千歳1F",
    "prefecture": "北海道",
    "lat": 42.83276,
    "lng": 141.65518,
    "is_wpn_premium": false,
    "is_teaching_meister": false,
    "status": "active"
  },
  {
    "official_id": "0016952",
    "name": "カードショップロピス",
    "address": "江別市上江別427番地の41 マルシェ上江別1階階",
    "prefecture": "北海道",
    "lat": 43.100647,
    "lng": 141.547144,
    "is_wpn_premium": false,
    "is_teaching_meister": false,
    "status": "active"
  },
  {
    "official_id": "0011263",
    "name": "カードショップサード",
    "address": "砂川市東一条北2-1-1",
    "prefecture": "北海道",
    "lat": 43.49205,
    "lng": 141.9078,
    "is_wpn_premium": false,
    "is_teaching_meister": false,
    "status": "active"
  },
  {
    "official_id": "0006424",
    "name": "夢工場",
    "address": "旭川市4条通23-5-68 右3号",
    "prefecture": "北海道",
    "lat": 43.76203,
    "lng": 142.38401,
    "is_wpn_premium": false,
    "is_teaching_meister": false,
    "status": "active"
  },
  {
    "official_id": "0006576",
    "name": "コレホビショップ",
    "address": "帯広市西十六条南6-7-3 ファーイースト1F",
    "prefecture": "北海道",
    "lat": 42.90158,
    "lng": 143.17917,
    "is_wpn_premium": false,
    "is_teaching_meister": false,
    "status": "active"
  },
  {
    "official_id": "0012526",
    "name": "HOPE～ボードゲームスクール",
    "address": "釧路市美原2-32-7",
    "prefecture": "北海道",
    "lat": 43.02349,
    "lng": 144.39984,
    "is_wpn_premium": false,
    "is_teaching_meister": false,
    "status": "active"
  },
  {
    "official_id": "0005808",
    "name": "カードショップMana",
    "address": "北見市美芳町5丁目5-15",
    "prefecture": "北海道",
    "lat": 43.80484,
    "lng": 143.88075,
    "is_wpn_premium": false,
    "is_teaching_meister": false,
    "status": "active"
  },
  {
    "official_id": "0015446",
    "name": "ザ・グレートヨロズヤ",
    "address": "青森市大野前田67-3",
    "prefecture": "青森県",
    "lat": 40.7995214,
    "lng": 140.7382019,
    "is_wpn_premium": false,
    "is_teaching_meister": false,
    "status": "active"
  },
  {
    "official_id": "0006093",
    "name": "トミー八戸店",
    "address": "八戸市下長3-4-17",
    "prefecture": "青森県",
    "lat": 40.53668,
    "lng": 141.47432,
    "is_wpn_premium": false,
    "is_teaching_meister": false,
    "status": "active"
  },
  {
    "official_id": "0010502",
    "name": "ホビースクエアにしな",
    "address": "盛岡市みたけ3-18-29",
    "prefecture": "岩手県",
    "lat": 39.73697,
    "lng": 141.11727,
    "is_wpn_premium": false,
    "is_teaching_meister": false,
    "status": "active"
  },
  {
    "official_id": "0005807",
    "name": "ホビーショップパワーナイン",
    "address": "一関市山目字寺前34-2",
    "prefecture": "岩手県",
    "lat": 38.93737,
    "lng": 141.12301,
    "is_wpn_premium": false,
    "is_teaching_meister": false,
    "status": "active"
  },
  {
    "official_id": "0009087",
    "name": "サンホビーアンクル",
    "address": "遠野市中央通り5-5",
    "prefecture": "岩手県",
    "lat": 39.33031,
    "lng": 141.53023,
    "is_wpn_premium": false,
    "is_teaching_meister": false,
    "status": "active"
  },
  {
    "official_id": "0012390",
    "name": "ファッションロペ",
    "address": "陸前高田市高田町字馬場前114",
    "prefecture": "岩手県",
    "lat": 39.01543,
    "lng": 141.6287,
    "is_wpn_premium": false,
    "is_teaching_meister": false,
    "status": "active"
  },
  {
    "official_id": "0010818",
    "name": "カードゲームのシーガル仙台駅前店",
    "address": "仙台市青葉区中央3-6-1 仙台TRビル地下1F",
    "prefecture": "宮城県",
    "lat": 38.25989,
    "lng": 140.878675,
    "is_wpn_premium": false,
    "is_teaching_meister": false,
    "status": "active"
  },
  {
    "official_id": "0014434",
    "name": "フルコンプ PLAYERS CENTER仙台駅前店",
    "address": "仙台市青葉区中央2-1-27 Ever-i中央ビル3階",
    "prefecture": "宮城県",
    "lat": 38.26148,
    "lng": 140.87861,
    "is_wpn_premium": false,
    "is_teaching_meister": false,
    "status": "active"
  },
  {
    "official_id": "0020257",
    "name": "TCGBAR Rishadan",
    "address": "仙台市青葉区国分町2-10-16　シャルマンビルB1F　B号室",
    "prefecture": "宮城県",
    "lat": 38.264281,
    "lng": 140.869746,
    "is_wpn_premium": false,
    "is_teaching_meister": false,
    "status": "active"
  },
  {
    "official_id": "0015218",
    "name": "スポーツカード＆カードゲームショップ MINT仙台店",
    "address": "仙台市青葉区中央1-2-3 仙台PARCO8F",
    "prefecture": "宮城県",
    "lat": 38.26199,
    "lng": 140.88153,
    "is_wpn_premium": false,
    "is_teaching_meister": false,
    "status": "active"
  },
  {
    "official_id": "0008613",
    "name": "シーガル泉中央店",
    "address": "仙台市泉区泉中央1-2-7",
    "prefecture": "宮城県",
    "lat": 38.32158,
    "lng": 140.88262,
    "is_wpn_premium": false,
    "is_teaching_meister": false,
    "status": "active"
  },
  {
    "official_id": "0013184",
    "name": "OMITSU仙台原町店",
    "address": "仙台市宮城野区原町2-5-57 B区画",
    "prefecture": "宮城県",
    "lat": 38.26587,
    "lng": 140.90409,
    "is_wpn_premium": false,
    "is_teaching_meister": false,
    "status": "active"
  },
  {
    "official_id": "0011886",
    "name": "シーガル大和町店",
    "address": "仙台市若林区志波町18-23",
    "prefecture": "宮城県",
    "lat": 38.24917,
    "lng": 140.91296,
    "is_wpn_premium": false,
    "is_teaching_meister": false,
    "status": "active"
  },
  {
    "official_id": "0011279",
    "name": "シーガル気仙沼店",
    "address": "気仙沼市田中前3-7-10",
    "prefecture": "宮城県",
    "lat": 38.89071,
    "lng": 141.5605,
    "is_wpn_premium": false,
    "is_teaching_meister": false,
    "status": "active"
  },
  {
    "official_id": "0017078",
    "name": "おもちゃの王様",
    "address": "仙台市青葉区錦ヶ丘1丁目3-1 錦ヶ丘ヒルサイドモール2階",
    "prefecture": "宮城県",
    "lat": 38.257237,
    "lng": 140.764242,
    "is_wpn_premium": false,
    "is_teaching_meister": false,
    "status": "active"
  },
  {
    "official_id": "0012376",
    "name": "おもしろ市場鹿島台店",
    "address": "大崎市鹿島台木間塚小谷地374-1",
    "prefecture": "宮城県",
    "lat": 38.47618,
    "lng": 141.10636,
    "is_wpn_premium": false,
    "is_teaching_meister": false,
    "status": "active"
  },
  {
    "official_id": "0007681",
    "name": "R-SHOP",
    "address": "秋田市広面土手下113",
    "prefecture": "秋田県",
    "lat": 39.72463,
    "lng": 140.14377,
    "is_wpn_premium": false,
    "is_teaching_meister": false,
    "status": "active"
  },
  {
    "official_id": "0006598",
    "name": "港北いわや",
    "address": "秋田市土崎港北4-10-25",
    "prefecture": "秋田県",
    "lat": 39.76463,
    "lng": 140.07578,
    "is_wpn_premium": false,
    "is_teaching_meister": false,
    "status": "active"
  },
  {
    "official_id": "0012574",
    "name": "お宝弁財天",
    "address": "大仙市大曲白金町11-3",
    "prefecture": "秋田県",
    "lat": 39.46679,
    "lng": 140.47322,
    "is_wpn_premium": false,
    "is_teaching_meister": false,
    "status": "active"
  },
  {
    "official_id": "0015592",
    "name": "シーガル嶋北店",
    "address": "山形市嶋北2-22-20",
    "prefecture": "山形県",
    "lat": 38.289695,
    "lng": 140.319717,
    "is_wpn_premium": false,
    "is_teaching_meister": false,
    "status": "active"
  },
  {
    "official_id": "0007563",
    "name": "シーガル桜田店",
    "address": "山形市桜田西1-2-8",
    "prefecture": "山形県",
    "lat": 38.22062,
    "lng": 140.31928,
    "is_wpn_premium": false,
    "is_teaching_meister": false,
    "status": "active"
  },
  {
    "official_id": "0009309",
    "name": "シーガル米沢店",
    "address": "米沢市金池6-5-33",
    "prefecture": "山形県",
    "lat": 37.92626,
    "lng": 140.11618,
    "is_wpn_premium": false,
    "is_teaching_meister": false,
    "status": "active"
  },
  {
    "official_id": "0007164",
    "name": "TENDO八文字屋",
    "address": "天童市鍬ノ町2-3-43",
    "prefecture": "山形県",
    "lat": 38.35369,
    "lng": 140.38633,
    "is_wpn_premium": false,
    "is_teaching_meister": false,
    "status": "active"
  },
  {
    "official_id": "0011382",
    "name": "カードショップライブラリ",
    "address": "福島市五老内町6-14",
    "prefecture": "福島県",
    "lat": 37.760099,
    "lng": 140.475119,
    "is_wpn_premium": false,
    "is_teaching_meister": false,
    "status": "active"
  },
  {
    "official_id": "0009658",
    "name": "CARD SHOP GACHI",
    "address": "白河市道場小路80-3",
    "prefecture": "福島県",
    "lat": 37.13005,
    "lng": 140.20852,
    "is_wpn_premium": false,
    "is_teaching_meister": false,
    "status": "active"
  },
  {
    "official_id": "0012825",
    "name": "Duel stade Ganryu いわき鹿島店",
    "address": "いわき市鹿島町走熊字西反町2",
    "prefecture": "福島県",
    "lat": 36.99767,
    "lng": 140.90804,
    "is_wpn_premium": false,
    "is_teaching_meister": false,
    "status": "active"
  },
  {
    "official_id": "0006960",
    "name": "カードショップさくら",
    "address": "土浦市大川口1-3-110 モール505 B101",
    "prefecture": "茨城県",
    "lat": 36.08013,
    "lng": 140.204813,
    "is_wpn_premium": false,
    "is_teaching_meister": false,
    "status": "active"
  },
  {
    "official_id": "0006131",
    "name": "わくわくらんど土浦店",
    "address": "土浦市大和町7-20",
    "prefecture": "茨城県",
    "lat": 36.07973,
    "lng": 140.20286,
    "is_wpn_premium": false,
    "is_teaching_meister": false,
    "status": "active"
  },
  {
    "official_id": "0011917",
    "name": "WonderGOOひたち野うしく店",
    "address": "牛久市ひたち野東5-5-1",
    "prefecture": "茨城県",
    "lat": 36.00609,
    "lng": 140.1621,
    "is_wpn_premium": false,
    "is_teaching_meister": false,
    "status": "active"
  },
  {
    "official_id": "0006807",
    "name": "ブックセンター江戸屋",
    "address": "結城郡八千代町菅谷283-3",
    "prefecture": "茨城県",
    "lat": 36.19026,
    "lng": 139.8841,
    "is_wpn_premium": false,
    "is_teaching_meister": false,
    "status": "active"
  },
  {
    "official_id": "0012456",
    "name": "カンテラ",
    "address": "龍ケ崎市川原代町5581-12 イイジマビル2F",
    "prefecture": "茨城県",
    "lat": 35.90655,
    "lng": 140.17265,
    "is_wpn_premium": false,
    "is_teaching_meister": false,
    "status": "active"
  },
  {
    "official_id": "0009212",
    "name": "WonderGOO下館店",
    "address": "筑西市菅谷1513",
    "prefecture": "茨城県",
    "lat": 36.30647,
    "lng": 139.96601,
    "is_wpn_premium": false,
    "is_teaching_meister": false,
    "status": "active"
  },
  {
    "official_id": "0018100",
    "name": "TSUTAYA鹿嶋南店",
    "address": "神栖市掘割1-2-25",
    "prefecture": "茨城県",
    "lat": 35.924018,
    "lng": 140.63373,
    "is_wpn_premium": false,
    "is_teaching_meister": false,
    "status": "active"
  },
  {
    "official_id": "0006836",
    "name": "WonderGOO鹿島店",
    "address": "神栖市堀割3-3-20",
    "prefecture": "茨城県",
    "lat": 35.92393,
    "lng": 140.63963,
    "is_wpn_premium": false,
    "is_teaching_meister": false,
    "status": "active"
  },
  {
    "official_id": "0006626",
    "name": "イエローサブマリン宇都宮店",
    "address": "宇都宮市曲師町2-8 宇都宮フェスタ２F",
    "prefecture": "栃木県",
    "lat": 36.56035,
    "lng": 139.88471,
    "is_wpn_premium": false,
    "is_teaching_meister": false,
    "status": "active"
  },
  {
    "official_id": "0011289",
    "name": "WonderGOO大田原店",
    "address": "大田原市若松町1650-10",
    "prefecture": "栃木県",
    "lat": 36.85554,
    "lng": 140.02221,
    "is_wpn_premium": false,
    "is_teaching_meister": false,
    "status": "active"
  },
  {
    "official_id": "0005992",
    "name": "おもちゃのサカモト",
    "address": "那須塩原市住吉町1-9",
    "prefecture": "栃木県",
    "lat": 36.96656,
    "lng": 140.05262,
    "is_wpn_premium": false,
    "is_teaching_meister": false,
    "status": "active"
  },
  {
    "official_id": "0009624",
    "name": "きんこん館",
    "address": "足利市通1-2710",
    "prefecture": "栃木県",
    "lat": 36.33426,
    "lng": 139.45181,
    "is_wpn_premium": false,
    "is_teaching_meister": false,
    "status": "active"
  },
  {
    "official_id": "0017583",
    "name": "イベント＆TCGカフェTINY FRONTIER",
    "address": "宇都宮市下岡本町4033",
    "prefecture": "栃木県",
    "lat": 36.5945836,
    "lng": 139.9419165,
    "is_wpn_premium": false,
    "is_teaching_meister": false,
    "status": "active"
  },
  {
    "official_id": "0017503",
    "name": "晴れる屋高崎店",
    "address": "高崎市問屋町2丁目10-4 糀屋第一ビル 201",
    "prefecture": "群馬県",
    "lat": 36.34987,
    "lng": 139.01138,
    "is_wpn_premium": false,
    "is_teaching_meister": false,
    "status": "active"
  },
  {
    "official_id": "0007448",
    "name": "コミかる堂前橋店",
    "address": "前橋市荒牧町1-10-15",
    "prefecture": "群馬県",
    "lat": 36.42577,
    "lng": 139.05753,
    "is_wpn_premium": false,
    "is_teaching_meister": false,
    "status": "active"
  },
  {
    "official_id": "0009869",
    "name": "コミかる太田店",
    "address": "太田市新井町532-5",
    "prefecture": "群馬県",
    "lat": 36.28531,
    "lng": 139.37207,
    "is_wpn_premium": false,
    "is_teaching_meister": false,
    "status": "active"
  },
  {
    "official_id": "0007500",
    "name": "カードショップONE☆PACK",
    "address": "桐生市末広町6-10 スワンシティ1F",
    "prefecture": "群馬県",
    "lat": 36.41103,
    "lng": 139.33512,
    "is_wpn_premium": false,
    "is_teaching_meister": false,
    "status": "active"
  },
  {
    "official_id": "0007840",
    "name": "コミかる渋川店",
    "address": "渋川市渋川1814-30",
    "prefecture": "群馬県",
    "lat": 36.49306,
    "lng": 139.00536,
    "is_wpn_premium": false,
    "is_teaching_meister": false,
    "status": "active"
  },
  {
    "official_id": "0006839",
    "name": "おもちゃのキジマ",
    "address": "沼田市下之町871",
    "prefecture": "群馬県",
    "lat": 36.64468,
    "lng": 139.0439,
    "is_wpn_premium": false,
    "is_teaching_meister": false,
    "status": "active"
  },
  {
    "official_id": "0010421",
    "name": "ホビーステーション大宮店",
    "address": "さいたま市大宮区宮町1丁目60 大宮ラクーン5F",
    "prefecture": "埼玉県",
    "lat": 35.90776,
    "lng": 139.62587,
    "is_wpn_premium": false,
    "is_teaching_meister": false,
    "status": "active"
  },
  {
    "official_id": "0018102",
    "name": "まちキャラ　コクーンシティ店",
    "address": "さいたま市大宮区吉敷町4丁目263－1コクーンシティ2・3F",
    "prefecture": "埼玉県",
    "lat": 35.89655,
    "lng": 139.63539,
    "is_wpn_premium": false,
    "is_teaching_meister": false,
    "status": "active"
  },
  {
    "official_id": "0008429",
    "name": "アメニティードリーム大宮店",
    "address": "さいたま市大宮区大門町1-69 武蔵屋ビル5F",
    "prefecture": "埼玉県",
    "lat": 35.9059,
    "lng": 139.62666,
    "is_wpn_premium": false,
    "is_teaching_meister": false,
    "status": "active"
  },
  {
    "official_id": "0006215",
    "name": "イエローサブマリンプレイソフト宮原店",
    "address": "さいたま市北区宮原町3-561",
    "prefecture": "埼玉県",
    "lat": 35.9398,
    "lng": 139.60917,
    "is_wpn_premium": false,
    "is_teaching_meister": false,
    "status": "active"
  },
  {
    "official_id": "0017573",
    "name": "カードボックス川口店",
    "address": "川口市本町2-7-25 ミエルかわぐち3F",
    "prefecture": "埼玉県",
    "lat": 35.801031,
    "lng": 139.727384,
    "is_wpn_premium": false,
    "is_teaching_meister": false,
    "status": "active"
  },
  {
    "official_id": "0014059",
    "name": "フタバ図書TSUTAYAトレーディングカード戸田店",
    "address": "戸田市大字美女木943-7",
    "prefecture": "埼玉県",
    "lat": 35.834018,
    "lng": 139.653328,
    "is_wpn_premium": false,
    "is_teaching_meister": false,
    "status": "active"
  },
  {
    "official_id": "0012050",
    "name": "古本市場草加店",
    "address": "草加市栄町3-9-41",
    "prefecture": "埼玉県",
    "lat": 35.846532,
    "lng": 139.802681,
    "is_wpn_premium": false,
    "is_teaching_meister": false,
    "status": "active"
  },
  {
    "official_id": "0018545",
    "name": "あけらぼイオンタウン吉川美南店",
    "address": "吉川市美南3-25-1 イオンタウン吉川美南東街区2F",
    "prefecture": "埼玉県",
    "lat": 35.866002,
    "lng": 139.858862,
    "is_wpn_premium": false,
    "is_teaching_meister": false,
    "status": "active"
  },
  {
    "official_id": "0013615",
    "name": "トレカ＆ゲームZEST",
    "address": "越谷市北越谷4-2-8",
    "prefecture": "埼玉県",
    "lat": 35.90185,
    "lng": 139.77877,
    "is_wpn_premium": false,
    "is_teaching_meister": false,
    "status": "active"
  },
  {
    "official_id": "0010437",
    "name": "ホビーステーション南越谷店",
    "address": "越谷市南越谷1-15-1 楽園タウン2F",
    "prefecture": "埼玉県",
    "lat": 35.87512,
    "lng": 139.79323,
    "is_wpn_premium": false,
    "is_teaching_meister": false,
    "status": "active"
  },
  {
    "official_id": "0012486",
    "name": "トレカショップKCC",
    "address": "春日部市中央1-9-4高元ビル3FA",
    "prefecture": "埼玉県",
    "lat": 35.97944,
    "lng": 139.75089,
    "is_wpn_premium": false,
    "is_teaching_meister": false,
    "status": "active"
  },
  {
    "official_id": "0007352",
    "name": "ゲームショップアストラ",
    "address": "久喜市青葉5-1-1",
    "prefecture": "埼玉県",
    "lat": 36.06833,
    "lng": 139.69915,
    "is_wpn_premium": false,
    "is_teaching_meister": false,
    "status": "active"
  },
  {
    "official_id": "0007508",
    "name": "イエローサブマリン川越カードショップ",
    "address": "川越市新富町2-11-8 HAMAYA BLD.3階",
    "prefecture": "埼玉県",
    "lat": 35.91167432740441,
    "lng": 139.48260688324905,
    "is_wpn_premium": false,
    "is_teaching_meister": false,
    "status": "active"
  },
  {
    "official_id": "0008125",
    "name": "FIVE CARD坂戸店",
    "address": "坂戸市日の出町11-9 キャッスルマンション1F",
    "prefecture": "埼玉県",
    "lat": 35.96057,
    "lng": 139.39266,
    "is_wpn_premium": false,
    "is_teaching_meister": false,
    "status": "active"
  },
  {
    "official_id": "0008191",
    "name": "TCGショップディスク",
    "address": "狭山市水野862-4",
    "prefecture": "埼玉県",
    "lat": 35.83079,
    "lng": 139.42131,
    "is_wpn_premium": false,
    "is_teaching_meister": false,
    "status": "active"
  },
  {
    "official_id": "0013339",
    "name": "TSUTAYA狭山店",
    "address": "狭山市広瀬1丁目6-16",
    "prefecture": "埼玉県",
    "lat": 35.8578,
    "lng": 139.39378,
    "is_wpn_premium": false,
    "is_teaching_meister": false,
    "status": "active"
  },
  {
    "official_id": "0013137",
    "name": "TSUTAYA嵐山店",
    "address": "比企郡嵐山町平沢土地区画整理内31街区10",
    "prefecture": "埼玉県",
    "lat": 36.04215,
    "lng": 139.31557,
    "is_wpn_premium": false,
    "is_teaching_meister": false,
    "status": "active"
  },
  {
    "official_id": "0014613",
    "name": "TOKIGAWA BASE",
    "address": "比企郡ときがわ町西平184-1",
    "prefecture": "埼玉県",
    "lat": 36.00685,
    "lng": 139.24318,
    "is_wpn_premium": false,
    "is_teaching_meister": false,
    "status": "active"
  },
  {
    "official_id": "0012703",
    "name": "Duel Stade Ganryu 入間店",
    "address": "入間市上藤沢387-2",
    "prefecture": "埼玉県",
    "lat": 35.82371,
    "lng": 139.40062,
    "is_wpn_premium": false,
    "is_teaching_meister": false,
    "status": "active"
  },
  {
    "official_id": "0008257",
    "name": "ホビーステーション所沢店",
    "address": "所沢市日吉町8-5 Ｋ’ｓビル5F",
    "prefecture": "埼玉県",
    "lat": 35.78892,
    "lng": 139.47139,
    "is_wpn_premium": false,
    "is_teaching_meister": false,
    "status": "active"
  },
  {
    "official_id": "0007892",
    "name": "ホビーショップロータス小手指店",
    "address": "所沢市小手指町1-26-10 太田ビル3F",
    "prefecture": "埼玉県",
    "lat": 35.80367,
    "lng": 139.43885,
    "is_wpn_premium": false,
    "is_teaching_meister": false,
    "status": "active"
  },
  {
    "official_id": "0017584",
    "name": "カードショップArena",
    "address": "熊谷市本町1-140 とちたて熊谷ビル 4階",
    "prefecture": "埼玉県",
    "lat": 36.14507464727077,
    "lng": 139.3824188750613,
    "is_wpn_premium": false,
    "is_teaching_meister": false,
    "status": "active"
  },
  {
    "official_id": "0007749",
    "name": "TCGショップワールド熊谷石原店",
    "address": "熊谷市石原3-244",
    "prefecture": "埼玉県",
    "lat": 36.14963,
    "lng": 139.37568,
    "is_wpn_premium": false,
    "is_teaching_meister": false,
    "status": "active"
  },
  {
    "official_id": "0012395",
    "name": "TSUTAYA伊奈店",
    "address": "北足立郡伊奈町学園2-188-4",
    "prefecture": "埼玉県",
    "lat": 36.01015,
    "lng": 139.61194,
    "is_wpn_premium": false,
    "is_teaching_meister": false,
    "status": "active"
  },
  {
    "official_id": "0013487",
    "name": "TSUTAYA秩父店",
    "address": "秩父市下宮地町18-9",
    "prefecture": "埼玉県",
    "lat": 36.01392,
    "lng": 139.09304,
    "is_wpn_premium": false,
    "is_teaching_meister": false,
    "status": "active"
  },
  {
    "official_id": "0010272",
    "name": "イエローサブマリン千葉ゲームショップ",
    "address": "千葉市中央区富士見2-3-1 塚本ビル3F",
    "prefecture": "千葉県",
    "lat": 35.61157,
    "lng": 140.11661,
    "is_wpn_premium": false,
    "is_teaching_meister": false,
    "status": "active"
  },
  {
    "official_id": "0014924",
    "name": "GoodGame",
    "address": "流山市おおたかの森西1-2-2 SAKURA TERRACE 3F D区画",
    "prefecture": "千葉県",
    "lat": 35.87189,
    "lng": 139.924226,
    "is_wpn_premium": false,
    "is_teaching_meister": false,
    "status": "active"
  },
  {
    "official_id": "0016208",
    "name": "TSUTAYA流山おおたかの森駅前店",
    "address": "流山市おおたかの森西一丁目1番地の1 こかげテラス",
    "prefecture": "千葉県",
    "lat": 35.871749,
    "lng": 139.92505,
    "is_wpn_premium": false,
    "is_teaching_meister": false,
    "status": "active"
  },
  {
    "official_id": "0013479",
    "name": "TSUTAYA六高台店",
    "address": "松戸市六実1-14-1",
    "prefecture": "千葉県",
    "lat": 35.79345,
    "lng": 139.9871,
    "is_wpn_premium": false,
    "is_teaching_meister": false,
    "status": "active"
  },
  {
    "official_id": "0005726",
    "name": "ホビーステーション松戸店",
    "address": "松戸市松戸1307-1キテミテマツド3F",
    "prefecture": "千葉県",
    "lat": 35.7737827,
    "lng": 139.9041599,
    "is_wpn_premium": false,
    "is_teaching_meister": false,
    "status": "active"
  },
  {
    "official_id": "0009967",
    "name": "カードショップトリックスター松戸店",
    "address": "松戸市松戸1150-2 松戸三角ビル2F",
    "prefecture": "千葉県",
    "lat": 35.78494,
    "lng": 139.90264,
    "is_wpn_premium": false,
    "is_teaching_meister": false,
    "status": "active"
  },
  {
    "official_id": "0006102",
    "name": "カードショップにけ",
    "address": "市川市香取2-12-13 1F",
    "prefecture": "千葉県",
    "lat": 35.67999,
    "lng": 139.90543,
    "is_wpn_premium": false,
    "is_teaching_meister": false,
    "status": "active"
  },
  {
    "official_id": "0017081",
    "name": "カードボックス船橋駅前店",
    "address": "船橋市本町4丁目2番地17号",
    "prefecture": "千葉県",
    "lat": 35.700936,
    "lng": 139.986238,
    "is_wpn_premium": false,
    "is_teaching_meister": false,
    "status": "active"
  },
  {
    "official_id": "0012687",
    "name": "桃太郎王国習志野店",
    "address": "船橋市習志野台5-21-3",
    "prefecture": "千葉県",
    "lat": 35.71385,
    "lng": 140.05505,
    "is_wpn_premium": false,
    "is_teaching_meister": false,
    "status": "active"
  },
  {
    "official_id": "0014612",
    "name": "TSUTAYA北習志野駅前店",
    "address": "船橋市習志野台2-1-6　北習志野駅前ビル2F",
    "prefecture": "千葉県",
    "lat": 35.721921,
    "lng": 140.042197,
    "is_wpn_premium": false,
    "is_teaching_meister": false,
    "status": "active"
  },
  {
    "official_id": "0013717",
    "name": "トーナメントセンターバトロコ新津田沼駅前",
    "address": "習志野市津田沼1-3-11 8階",
    "prefecture": "千葉県",
    "lat": 35.69002,
    "lng": 140.02255,
    "is_wpn_premium": false,
    "is_teaching_meister": false,
    "status": "active"
  },
  {
    "official_id": "0015137",
    "name": "トーナメントセンターバトロコ八千代台駅前",
    "address": "八千代台市八千代台東1-14-1 八千代プラザ2F",
    "prefecture": "千葉県",
    "lat": 35.70105,
    "lng": 140.091311,
    "is_wpn_premium": false,
    "is_teaching_meister": false,
    "status": "active"
  },
  {
    "official_id": "0006799",
    "name": "イエローサブマリン柏店",
    "address": "柏市柏2-3-1 フーサワビル6F",
    "prefecture": "千葉県",
    "lat": 35.86144,
    "lng": 139.97266,
    "is_wpn_premium": false,
    "is_teaching_meister": false,
    "status": "active"
  },
  {
    "official_id": "0019368",
    "name": "まちキャラ　柏モディ店",
    "address": "柏市柏1-2-26 柏モディ5階",
    "prefecture": "千葉県",
    "lat": 35.860494,
    "lng": 139.970648,
    "is_wpn_premium": false,
    "is_teaching_meister": false,
    "status": "active"
  },
  {
    "official_id": "0008171",
    "name": "トーナメントセンターバトロコ柏駅前",
    "address": "柏市柏1-2-31 新星堂カルチェ4F",
    "prefecture": "千葉県",
    "lat": 35.86105,
    "lng": 139.97154,
    "is_wpn_premium": false,
    "is_teaching_meister": false,
    "status": "active"
  },
  {
    "official_id": "0006581",
    "name": "野田ホビーノア店",
    "address": "野田市中根36-1 ショッピングセンターノア3F",
    "prefecture": "千葉県",
    "lat": 35.94776,
    "lng": 139.87601,
    "is_wpn_premium": false,
    "is_teaching_meister": false,
    "status": "active"
  },
  {
    "official_id": "0012416",
    "name": "トクジロー浦安店",
    "address": "浦安市猫実4-6-26 ミナモトビル1F",
    "prefecture": "千葉県",
    "lat": 35.6643,
    "lng": 139.8947,
    "is_wpn_premium": false,
    "is_teaching_meister": false,
    "status": "active"
  },
  {
    "official_id": "0011918",
    "name": "ときわ書房ニューコースト新浦安店",
    "address": "浦安市明海4-1-1 ニューコースト新浦安2F",
    "prefecture": "千葉県",
    "lat": 35.64289,
    "lng": 139.92307,
    "is_wpn_premium": false,
    "is_teaching_meister": false,
    "status": "active"
  },
  {
    "official_id": "0007690",
    "name": "プレイスペースぷらっつさくら",
    "address": "佐倉市上志津1669-44 HYUGAⅡ101",
    "prefecture": "千葉県",
    "lat": 35.71747,
    "lng": 140.14591,
    "is_wpn_premium": false,
    "is_teaching_meister": false,
    "status": "active"
  },
  {
    "official_id": "0012803",
    "name": "蔦屋書店茂原店",
    "address": "茂原市六ツ野八貫野2785-1",
    "prefecture": "千葉県",
    "lat": 35.43104,
    "lng": 140.30994,
    "is_wpn_premium": false,
    "is_teaching_meister": false,
    "status": "active"
  },
  {
    "official_id": "0012792",
    "name": "マイメーズ",
    "address": "茂原市高師845-30 日建茂原マンション 104 キュイキュイテラス内",
    "prefecture": "千葉県",
    "lat": 35.42537,
    "lng": 140.30113,
    "is_wpn_premium": false,
    "is_teaching_meister": false,
    "status": "active"
  },
  {
    "official_id": "0010475",
    "name": "ホビーステーション秋葉原本店",
    "address": "千代田区外神田1-10-11 森ビル2F",
    "prefecture": "東京都",
    "lat": 35.69875,
    "lng": 139.77078,
    "is_wpn_premium": false,
    "is_teaching_meister": false,
    "status": "active"
  },
  {
    "official_id": "0012648",
    "name": "ゲームカフェ秋葉原集会所",
    "address": "千代田区外神田3-8-5 イサミヤ第2ビル3F",
    "prefecture": "東京都",
    "lat": 35.70263,
    "lng": 139.7707,
    "is_wpn_premium": false,
    "is_teaching_meister": false,
    "status": "active"
  },
  {
    "official_id": "0013202",
    "name": "カードマックス秋葉原店",
    "address": "千代田区外神田4-14-1 秋葉原UDXビル4F　NEXT-2",
    "prefecture": "東京都",
    "lat": 35.7005,
    "lng": 139.7725,
    "is_wpn_premium": false,
    "is_teaching_meister": false,
    "status": "active"
  },
  {
    "official_id": "0014352",
    "name": "TCGゲームズバーコネクト",
    "address": "千代田区外神田3-1-3 秋葉原パークビル6階",
    "prefecture": "東京都",
    "lat": 35.70015,
    "lng": 139.7694,
    "is_wpn_premium": false,
    "is_teaching_meister": false,
    "status": "active"
  },
  {
    "official_id": "0014993",
    "name": "カードラッシュ秋葉原0号店TC",
    "address": "千代田区外神田1-18-18 Bito Akiba Plaza7F",
    "prefecture": "東京都",
    "lat": 35.6987,
    "lng": 139.7723,
    "is_wpn_premium": false,
    "is_teaching_meister": false,
    "status": "active"
  },
  {
    "official_id": "0015301",
    "name": "カードン 秋葉原本店",
    "address": "千代田区外神田二丁目４番４号",
    "prefecture": "東京都",
    "lat": 35.69965,
    "lng": 139.76881,
    "is_wpn_premium": false,
    "is_teaching_meister": false,
    "status": "active"
  },
  {
    "official_id": "0017093",
    "name": "カードショップおうち",
    "address": "千代田区外神田4-7-1",
    "prefecture": "東京都",
    "lat": 35.70231,
    "lng": 139.77196,
    "is_wpn_premium": false,
    "is_teaching_meister": false,
    "status": "active"
  },
  {
    "official_id": "0021224",
    "name": "Ganryu秋葉原",
    "address": "千代田区外神田1丁目2-7 オノデン秋葉原本館 B1階",
    "prefecture": "東京都",
    "lat": 35.698282,
    "lng": 139.770981,
    "is_wpn_premium": false,
    "is_teaching_meister": false,
    "status": "active"
  },
  {
    "official_id": "0006730",
    "name": "イエローサブマリン秋葉原本店★ミント",
    "address": "千代田区外神田1-15-16 ラジオ会館6F",
    "prefecture": "東京都",
    "lat": 35.69798,
    "lng": 139.77193,
    "is_wpn_premium": false,
    "is_teaching_meister": false,
    "status": "active"
  },
  {
    "official_id": "0006950",
    "name": "BIG MAGIC秋葉原店",
    "address": "千代田区外神田1-15-16 秋葉原ラジオ会館9F",
    "prefecture": "東京都",
    "lat": 35.69786,
    "lng": 139.77196,
    "is_wpn_premium": false,
    "is_teaching_meister": false,
    "status": "active"
  },
  {
    "official_id": "0007441",
    "name": "アメニティードリーム秋葉原店",
    "address": "千代田区外神田1-11-6 小暮ビル6F",
    "prefecture": "東京都",
    "lat": 35.69948,
    "lng": 139.77098,
    "is_wpn_premium": false,
    "is_teaching_meister": false,
    "status": "active"
  },
  {
    "official_id": "0013599",
    "name": "Clove Base Akihabara",
    "address": "千代田区神田佐久間町1-13チョムチョム秋葉原6階",
    "prefecture": "東京都",
    "lat": 35.69785,
    "lng": 139.77421,
    "is_wpn_premium": false,
    "is_teaching_meister": false,
    "status": "active"
  },
  {
    "official_id": "0015001",
    "name": "TCG専門店ARCANA",
    "address": "千代田区神田三崎町3丁目10-22WHARF 神田三崎町ビル5F",
    "prefecture": "東京都",
    "lat": 35.69903,
    "lng": 139.752316,
    "is_wpn_premium": false,
    "is_teaching_meister": false,
    "status": "active"
  },
  {
    "official_id": "0017049",
    "name": "カードマウンテン",
    "address": "千代田区神田淡路町1-19-8 千代田ビル4階",
    "prefecture": "東京都",
    "lat": 35.695401,
    "lng": 139.765859,
    "is_wpn_premium": false,
    "is_teaching_meister": false,
    "status": "active"
  },
  {
    "official_id": "0010901",
    "name": "ゲームバーグリュック",
    "address": "千代田区飯田橋4-2-6 アヴァンセ飯田橋201",
    "prefecture": "東京都",
    "lat": 35.69993,
    "lng": 139.74742,
    "is_wpn_premium": false,
    "is_teaching_meister": false,
    "status": "active"
  },
  {
    "official_id": "0013548",
    "name": "Fellows GAME CAFE & BAL",
    "address": "港区新橋二丁目 3-7菊豊ビル2F",
    "prefecture": "東京都",
    "lat": 35.66776,
    "lng": 139.75557,
    "is_wpn_premium": false,
    "is_teaching_meister": false,
    "status": "active"
  },
  {
    "official_id": "0008325",
    "name": "マックスゲーム浜松町",
    "address": "港区浜松町2-8-4 高雄ビル3F",
    "prefecture": "東京都",
    "lat": 35.654123,
    "lng": 139.755708,
    "is_wpn_premium": false,
    "is_teaching_meister": false,
    "status": "active"
  },
  {
    "official_id": "0012525",
    "name": "秋葉原チェルモ",
    "address": "台東区上野6-3-15 大場ビル3F",
    "prefecture": "東京都",
    "lat": 35.70808,
    "lng": 139.77528,
    "is_wpn_premium": false,
    "is_teaching_meister": false,
    "status": "active"
  },
  {
    "official_id": "0012998",
    "name": "コロコロ堂",
    "address": "台東区上野1‐9‐3 日向ビル1F",
    "prefecture": "東京都",
    "lat": 35.70589,
    "lng": 139.77107,
    "is_wpn_premium": false,
    "is_teaching_meister": false,
    "status": "active"
  },
  {
    "official_id": "0009393",
    "name": "Cafe＆Bar FUN",
    "address": "台東区上野5-23-8",
    "prefecture": "東京都",
    "lat": 35.7065,
    "lng": 139.77566,
    "is_wpn_premium": false,
    "is_teaching_meister": false,
    "status": "active"
  },
  {
    "official_id": "0011332",
    "name": "LUNLUN",
    "address": "足立区東和3-2-1 グレースヒル878 104号室",
    "prefecture": "東京都",
    "lat": 35.76915,
    "lng": 139.83717,
    "is_wpn_premium": false,
    "is_teaching_meister": false,
    "status": "active"
  },
  {
    "official_id": "0016802",
    "name": "TSUTAYA Trading Card 北千住店",
    "address": "足立区千住3丁目92北千住マルイ5階",
    "prefecture": "東京都",
    "lat": 35.750932994115985,
    "lng": 139.80452442544103,
    "is_wpn_premium": false,
    "is_teaching_meister": false,
    "status": "active"
  },
  {
    "official_id": "0017056",
    "name": "TSUTAYATradingCard錦糸町店",
    "address": "墨田区江東橋4丁目27-14 錦糸町PARCO5階",
    "prefecture": "東京都",
    "lat": 35.696312,
    "lng": 139.81566,
    "is_wpn_premium": false,
    "is_teaching_meister": false,
    "status": "active"
  },
  {
    "official_id": "0009596",
    "name": "ピットイン",
    "address": "江戸川区西葛西6-5-14",
    "prefecture": "東京都",
    "lat": 35.66354,
    "lng": 139.85727,
    "is_wpn_premium": false,
    "is_teaching_meister": false,
    "status": "active"
  },
  {
    "official_id": "0016922",
    "name": "古本市場西大島駅前店",
    "address": "江東区大島3-1-6",
    "prefecture": "東京都",
    "lat": 35.689536,
    "lng": 139.827206,
    "is_wpn_premium": false,
    "is_teaching_meister": false,
    "status": "active"
  },
  {
    "official_id": "0009914",
    "name": "ボードゲーム喫茶天岩庵",
    "address": "品川区東大井3-1-3",
    "prefecture": "東京都",
    "lat": 35.604664,
    "lng": 139.738079,
    "is_wpn_premium": false,
    "is_teaching_meister": false,
    "status": "active"
  },
  {
    "official_id": "0006282",
    "name": "ブックアニマル蒲田梅屋敷店",
    "address": "大田区大森中2-2-10",
    "prefecture": "東京都",
    "lat": 35.567,
    "lng": 139.72968,
    "is_wpn_premium": false,
    "is_teaching_meister": false,
    "status": "active"
  },
  {
    "official_id": "0015477",
    "name": "TCG専門店Day屋",
    "address": "大田区西蒲田７丁目4-5小山第一ビル 4F",
    "prefecture": "東京都",
    "lat": 35.563975,
    "lng": 139.716059,
    "is_wpn_premium": false,
    "is_teaching_meister": false,
    "status": "active"
  },
  {
    "official_id": "0008346",
    "name": "アメニティードリーム蒲田店",
    "address": "大田区西蒲田7-4-3 カーサ蒲田B1F",
    "prefecture": "東京都",
    "lat": 35.56398,
    "lng": 139.71544,
    "is_wpn_premium": false,
    "is_teaching_meister": false,
    "status": "active"
  },
  {
    "official_id": "0006089",
    "name": "ゲームショップ武蔵",
    "address": "大田区矢口1-6-16 武蔵野ビル2F",
    "prefecture": "東京都",
    "lat": 35.56791,
    "lng": 139.69287,
    "is_wpn_premium": false,
    "is_teaching_meister": false,
    "status": "active"
  },
  {
    "official_id": "0015141",
    "name": "スポーツカード＆カードゲームショップ MINT新宿店",
    "address": "新宿区新宿3-1-26 新宿マルイアネックス 7F",
    "prefecture": "東京都",
    "lat": 35.690157,
    "lng": 139.705896,
    "is_wpn_premium": false,
    "is_teaching_meister": false,
    "status": "active"
  },
  {
    "official_id": "0015355",
    "name": "TCGカフェ＆バー EVO",
    "address": "新宿区新宿18-5ネストビル2階",
    "prefecture": "東京都",
    "lat": 35.68969,
    "lng": 139.71146,
    "is_wpn_premium": false,
    "is_teaching_meister": false,
    "status": "active"
  },
  {
    "official_id": "0013849",
    "name": "イエローサブマリン新宿店",
    "address": "新宿区西新宿1-16-11 AIビル2階",
    "prefecture": "東京都",
    "lat": 35.68934,
    "lng": 139.69767,
    "is_wpn_premium": false,
    "is_teaching_meister": false,
    "status": "active"
  },
  {
    "official_id": "0014448",
    "name": "MTG SALON TOKYO",
    "address": "新宿区西新宿1-15-6 ゴールドビル302",
    "prefecture": "東京都",
    "lat": 35.68871,
    "lng": 139.69731,
    "is_wpn_premium": false,
    "is_teaching_meister": false,
    "status": "active"
  },
  {
    "official_id": "0006795",
    "name": "アメニティードリーム新宿店",
    "address": "新宿区西新宿7-1-8 ヒノデビル4F",
    "prefecture": "東京都",
    "lat": 35.69463,
    "lng": 139.69906,
    "is_wpn_premium": false,
    "is_teaching_meister": false,
    "status": "active"
  },
  {
    "official_id": "0005608",
    "name": "遊Vic中野店",
    "address": "中野区中野3丁目34-29　中野パールスカイビル7F",
    "prefecture": "東京都",
    "lat": 35.70334,
    "lng": 139.66491,
    "is_wpn_premium": false,
    "is_teaching_meister": false,
    "status": "active"
  },
  {
    "official_id": "0014666",
    "name": "カードショップ抜忍",
    "address": "新宿区高田馬場4-12-7 ニューハイツ高田馬場203",
    "prefecture": "東京都",
    "lat": 35.7131,
    "lng": 139.70156,
    "is_wpn_premium": false,
    "is_teaching_meister": false,
    "status": "active"
  },
  {
    "official_id": "0007499",
    "name": "トーナメントセンターバトロコ高田馬場",
    "address": "新宿区高田馬場4-11-10 テオリア高田馬場5F",
    "prefecture": "東京都",
    "lat": 35.7134,
    "lng": 139.70214,
    "is_wpn_premium": false,
    "is_teaching_meister": false,
    "status": "active"
  },
  {
    "official_id": "0012490",
    "name": "ボードゲームカフェASOBAKO",
    "address": "豊島区巣鴨3-28-7",
    "prefecture": "東京都",
    "lat": 35.7338,
    "lng": 139.73775,
    "is_wpn_premium": false,
    "is_teaching_meister": false,
    "status": "active"
  },
  {
    "official_id": "0018075",
    "name": "カードボックス池袋店",
    "address": "豊島区東池袋1丁目31－1 バロックコート池袋2F",
    "prefecture": "東京都",
    "lat": 35.73188,
    "lng": 139.7174,
    "is_wpn_premium": false,
    "is_teaching_meister": false,
    "status": "active"
  },
  {
    "official_id": "0007033",
    "name": "イエローサブマリン池袋ゲームショップ",
    "address": "豊島区東池袋1-15-2 音羽ビル6F",
    "prefecture": "東京都",
    "lat": 35.730851,
    "lng": 139.715034,
    "is_wpn_premium": false,
    "is_teaching_meister": false,
    "status": "active"
  },
  {
    "official_id": "0007847",
    "name": "アメニティードリーム池袋パワー9店",
    "address": "豊島区東池袋1-31-1 バロックコート池袋3F",
    "prefecture": "東京都",
    "lat": 35.73172,
    "lng": 139.71653,
    "is_wpn_premium": false,
    "is_teaching_meister": false,
    "status": "active"
  },
  {
    "official_id": "0011944",
    "name": "CARDGYM石神井公園駅前店",
    "address": "練馬区石神井町3-21-6 中村ビル3F",
    "prefecture": "東京都",
    "lat": 35.74326,
    "lng": 139.60678,
    "is_wpn_premium": false,
    "is_teaching_meister": false,
    "status": "active"
  },
  {
    "official_id": "0007359",
    "name": "まんぞく屋",
    "address": "練馬区平和台4-15-15",
    "prefecture": "東京都",
    "lat": 35.75929,
    "lng": 139.6567,
    "is_wpn_premium": false,
    "is_teaching_meister": false,
    "status": "active"
  },
  {
    "official_id": "0008010",
    "name": "アメニティードリーム吉祥寺店",
    "address": "武蔵野市吉祥寺本町1-13-4 テレーズ眸ビル3F",
    "prefecture": "東京都",
    "lat": 35.70527,
    "lng": 139.58075,
    "is_wpn_premium": false,
    "is_teaching_meister": false,
    "status": "active"
  },
  {
    "official_id": "0006016",
    "name": "カード＆カフェドリム",
    "address": "調布市仙川町1-4-29",
    "prefecture": "東京都",
    "lat": 35.66064,
    "lng": 139.5826,
    "is_wpn_premium": false,
    "is_teaching_meister": false,
    "status": "active"
  },
  {
    "official_id": "0010300",
    "name": "ENNDALGAMES調布店",
    "address": "調布市小島町2-56-3 調布センタービル2F",
    "prefecture": "東京都",
    "lat": 35.64887,
    "lng": 139.54299,
    "is_wpn_premium": false,
    "is_teaching_meister": false,
    "status": "active"
  },
  {
    "official_id": "0006523",
    "name": "HOBBY SHOPファミコンくん本店",
    "address": "立川市曙町2-4-9 小町ビル3F",
    "prefecture": "東京都",
    "lat": 35.69903,
    "lng": 139.41192,
    "is_wpn_premium": false,
    "is_teaching_meister": false,
    "status": "active"
  },
  {
    "official_id": "0012658",
    "name": "カードショップサトPin",
    "address": "立川市錦町1-5-6 サンパークビル303",
    "prefecture": "東京都",
    "lat": 35.69779,
    "lng": 139.41799,
    "is_wpn_premium": false,
    "is_teaching_meister": false,
    "status": "active"
  },
  {
    "official_id": "0014194",
    "name": "アメニティードリーム立川店",
    "address": "立川市柴崎町3-8-1 NACビル地下1階",
    "prefecture": "東京都",
    "lat": 35.69606,
    "lng": 139.41215,
    "is_wpn_premium": false,
    "is_teaching_meister": false,
    "status": "active"
  },
  {
    "official_id": "0005840",
    "name": "ファミコンくん2号店",
    "address": "立川市柴崎町3-5-9 イトウビル301",
    "prefecture": "東京都",
    "lat": 35.69595,
    "lng": 139.41439,
    "is_wpn_premium": false,
    "is_teaching_meister": false,
    "status": "active"
  },
  {
    "official_id": "0006115",
    "name": "イエローサブマリン立川店",
    "address": "立川市柴崎町3-7-17 N2ビル",
    "prefecture": "東京都",
    "lat": 35.69685,
    "lng": 139.41219,
    "is_wpn_premium": false,
    "is_teaching_meister": false,
    "status": "active"
  },
  {
    "official_id": "0018709",
    "name": "CARDWINGS八王子駅前店",
    "address": "八王子市旭町12-6ロイビル八王子2F",
    "prefecture": "東京都",
    "lat": 35.657253,
    "lng": 139.340643,
    "is_wpn_premium": false,
    "is_teaching_meister": false,
    "status": "active"
  },
  {
    "official_id": "0010313",
    "name": "イエローサブマリン町田ゲームショップ",
    "address": "町田市原町田6-18-13 サニーサイドビル2F",
    "prefecture": "東京都",
    "lat": 35.54414,
    "lng": 139.4473,
    "is_wpn_premium": false,
    "is_teaching_meister": false,
    "status": "active"
  },
  {
    "official_id": "0007663",
    "name": "アメニティードリーム町田店",
    "address": "町田市原町田6-20-10 中野屋ビル3F",
    "prefecture": "東京都",
    "lat": 35.54394,
    "lng": 139.44793,
    "is_wpn_premium": false,
    "is_teaching_meister": false,
    "status": "active"
  },
  {
    "official_id": "0020077",
    "name": "晴れる屋町田店",
    "address": "町田市中町1丁目1－4No.R町田北ビル301",
    "prefecture": "東京都",
    "lat": 35.5457,
    "lng": 139.44564,
    "is_wpn_premium": false,
    "is_teaching_meister": false,
    "status": "active"
  },
  {
    "official_id": "0014141",
    "name": "TSUTAYA西友町田店",
    "address": "町田市森野1-14-17 西友町田店 3F",
    "prefecture": "東京都",
    "lat": 35.54362,
    "lng": 139.44367,
    "is_wpn_premium": false,
    "is_teaching_meister": false,
    "status": "active"
  },
  {
    "official_id": "0006619",
    "name": "Fの集会場",
    "address": "福生市福生882-1 2F",
    "prefecture": "東京都",
    "lat": 35.7437,
    "lng": 139.33028,
    "is_wpn_premium": false,
    "is_teaching_meister": false,
    "status": "active"
  },
  {
    "official_id": "0012670",
    "name": "TSUTAYA福生店",
    "address": "福生市本町36",
    "prefecture": "東京都",
    "lat": 35.74027,
    "lng": 139.33007,
    "is_wpn_premium": false,
    "is_teaching_meister": false,
    "status": "active"
  },
  {
    "official_id": "0018101",
    "name": "文教堂 あきる野店",
    "address": "あきる野市秋川1-17-1 4階",
    "prefecture": "東京都",
    "lat": 35.7311932,
    "lng": 139.2873083,
    "is_wpn_premium": false,
    "is_teaching_meister": false,
    "status": "active"
  },
  {
    "official_id": "0016795",
    "name": "PAO青梅",
    "address": "青梅市新町5丁目4番地6号",
    "prefecture": "東京都",
    "lat": 35.787411,
    "lng": 139.306783,
    "is_wpn_premium": false,
    "is_teaching_meister": false,
    "status": "active"
  },
  {
    "official_id": "0014851",
    "name": "ボードゲームカフェFLiPDROP",
    "address": "川崎市川崎区砂子2-4-20-ニュータケウチビル402",
    "prefecture": "神奈川県",
    "lat": 35.5302653,
    "lng": 139.7002821,
    "is_wpn_premium": false,
    "is_teaching_meister": false,
    "status": "active"
  },
  {
    "official_id": "0013264",
    "name": "トーナメントセンターバトロコ川崎駅前",
    "address": "川崎市川崎区駅前本町7-4 9F",
    "prefecture": "神奈川県",
    "lat": 35.53073,
    "lng": 139.69997,
    "is_wpn_premium": false,
    "is_teaching_meister": false,
    "status": "active"
  },
  {
    "official_id": "0011481",
    "name": "JELLY JELLY CAFE 川崎店",
    "address": "川崎市川崎区小川町13-21-201",
    "prefecture": "神奈川県",
    "lat": 35.52777,
    "lng": 139.69862,
    "is_wpn_premium": false,
    "is_teaching_meister": false,
    "status": "active"
  },
  {
    "official_id": "0013503",
    "name": "イエローサブマリン川崎店",
    "address": "川崎市川崎区小川町2番地7アイヴィ・タワー地下1階",
    "prefecture": "神奈川県",
    "lat": 35.52843,
    "lng": 139.6992,
    "is_wpn_premium": false,
    "is_teaching_meister": false,
    "status": "active"
  },
  {
    "official_id": "0012391",
    "name": "ホビーステーション溝口店",
    "address": "川崎市高津区溝口1-4-1 マルイファミリー溝口8F",
    "prefecture": "神奈川県",
    "lat": 35.59923,
    "lng": 139.61291,
    "is_wpn_premium": false,
    "is_teaching_meister": false,
    "status": "active"
  },
  {
    "official_id": "0016638",
    "name": "イエローサブマリン溝口店",
    "address": "川崎市高津区溝口1-9-5 スギザキビル3階",
    "prefecture": "神奈川県",
    "lat": 35.599754,
    "lng": 139.612068,
    "is_wpn_premium": false,
    "is_teaching_meister": false,
    "status": "active"
  },
  {
    "official_id": "0010792",
    "name": "MTG Shop 信心亭",
    "address": "横浜市西区南幸2-16-22 金属ビル9F",
    "prefecture": "神奈川県",
    "lat": 35.46474,
    "lng": 139.61702,
    "is_wpn_premium": false,
    "is_teaching_meister": false,
    "status": "active"
  },
  {
    "official_id": "0012505",
    "name": "イエローサブマリン横浜店",
    "address": "横浜市西区南幸1-11-2 浜西ビル4F",
    "prefecture": "神奈川県",
    "lat": 35.46478,
    "lng": 139.61991,
    "is_wpn_premium": false,
    "is_teaching_meister": false,
    "status": "active"
  },
  {
    "official_id": "0015135",
    "name": "カードボックスヨコハマ本店",
    "address": "横浜市西区南幸2丁目11番3 プライムメゾン横浜WEST2階",
    "prefecture": "神奈川県",
    "lat": 35.463201,
    "lng": 139.616636,
    "is_wpn_premium": false,
    "is_teaching_meister": false,
    "status": "active"
  },
  {
    "official_id": "0006930",
    "name": "アメニティードリーム横浜店",
    "address": "横浜市西区南幸1-5-39 大洋ビル3F",
    "prefecture": "神奈川県",
    "lat": 35.463806,
    "lng": 139.61973,
    "is_wpn_premium": false,
    "is_teaching_meister": false,
    "status": "active"
  },
  {
    "official_id": "0012834",
    "name": "晴れる屋横浜店",
    "address": "横浜市神奈川区鶴屋町1-2-4 神谷ビル2F",
    "prefecture": "神奈川県",
    "lat": 35.46974,
    "lng": 139.62433,
    "is_wpn_premium": false,
    "is_teaching_meister": false,
    "status": "active"
  },
  {
    "official_id": "0006589",
    "name": "マルチメディアステーションゼロワン綱島店",
    "address": "横浜市港北区綱島西1-11-5 マルエスビル2F",
    "prefecture": "神奈川県",
    "lat": 35.53711,
    "lng": 139.63346,
    "is_wpn_premium": false,
    "is_teaching_meister": false,
    "status": "active"
  },
  {
    "official_id": "0006132",
    "name": "ビートダウン",
    "address": "横浜市都筑区中川中央1-2-2 ローバーセンター北2F",
    "prefecture": "神奈川県",
    "lat": 35.55321,
    "lng": 139.57729,
    "is_wpn_premium": false,
    "is_teaching_meister": false,
    "status": "active"
  },
  {
    "official_id": "0007900",
    "name": "ティム中山店",
    "address": "横浜市緑区台村町195　森ビル201",
    "prefecture": "神奈川県",
    "lat": 35.514066,
    "lng": 139.538702,
    "is_wpn_premium": false,
    "is_teaching_meister": false,
    "status": "active"
  },
  {
    "official_id": "0006964",
    "name": "CARDBOX青馬堂書店矢向店",
    "address": "横浜市鶴見区矢向5-8-42",
    "prefecture": "神奈川県",
    "lat": 35.53782,
    "lng": 139.68302,
    "is_wpn_premium": false,
    "is_teaching_meister": false,
    "status": "active"
  },
  {
    "official_id": "0012284",
    "name": "GAMEMATEリンク横須賀中央店",
    "address": "横須賀市若松町1-1",
    "prefecture": "神奈川県",
    "lat": 35.27925,
    "lng": 139.67086,
    "is_wpn_premium": false,
    "is_teaching_meister": false,
    "status": "active"
  },
  {
    "official_id": "0012736",
    "name": "トーナメントセンターバトロコ本厚木駅前",
    "address": "厚木市中町4-4-15 TMビル5F",
    "prefecture": "神奈川県",
    "lat": 35.43828,
    "lng": 139.36236,
    "is_wpn_premium": false,
    "is_teaching_meister": false,
    "status": "active"
  },
  {
    "official_id": "0008815",
    "name": "ホビーステーション本厚木店",
    "address": "厚木市中町4-14-6 パティオビル2F",
    "prefecture": "神奈川県",
    "lat": 35.43875,
    "lng": 139.36226,
    "is_wpn_premium": false,
    "is_teaching_meister": false,
    "status": "active"
  },
  {
    "official_id": "0012019",
    "name": "ハーティーあさひや",
    "address": "小田原市栄町1-2-1 小田原駅前ビル地下1F",
    "prefecture": "神奈川県",
    "lat": 35.25529,
    "lng": 139.15661,
    "is_wpn_premium": false,
    "is_teaching_meister": false,
    "status": "active"
  },
  {
    "official_id": "0014175",
    "name": "トーナメントセンターバトロコ藤沢駅北口",
    "address": "藤沢市藤沢971-3 パール湘南3F",
    "prefecture": "神奈川県",
    "lat": 35.33991,
    "lng": 139.48359,
    "is_wpn_premium": false,
    "is_teaching_meister": false,
    "status": "active"
  },
  {
    "official_id": "0006126",
    "name": "ホビーステーション湘南藤沢OPA店",
    "address": "藤沢市南藤沢22-3 B2F",
    "prefecture": "神奈川県",
    "lat": 35.33764,
    "lng": 139.48679,
    "is_wpn_premium": false,
    "is_teaching_meister": false,
    "status": "active"
  },
  {
    "official_id": "0018099",
    "name": "トレーディングカードピット長岡",
    "address": "長岡市堺東町22 アピナ長岡1階",
    "prefecture": "新潟県",
    "lat": 37.45832,
    "lng": 138.81294,
    "is_wpn_premium": false,
    "is_teaching_meister": false,
    "status": "active"
  },
  {
    "official_id": "0013578",
    "name": "カードショップ デュエルガルド イオン長岡店",
    "address": "長岡市古正寺1-249-1 イオン長岡店3階",
    "prefecture": "新潟県",
    "lat": 37.45435,
    "lng": 138.82333,
    "is_wpn_premium": false,
    "is_teaching_meister": false,
    "status": "active"
  },
  {
    "official_id": "0005857",
    "name": "デュエルスペースウカツの森",
    "address": "柏崎市長浜町6-33-101",
    "prefecture": "新潟県",
    "lat": 37.37046,
    "lng": 138.57733,
    "is_wpn_premium": false,
    "is_teaching_meister": false,
    "status": "active"
  },
  {
    "official_id": "0005745",
    "name": "カードベース ジャブロー",
    "address": "新潟市中央区上近江4-12-20 DeKKY401 B1F",
    "prefecture": "新潟県",
    "lat": 37.89854,
    "lng": 139.02963,
    "is_wpn_premium": false,
    "is_teaching_meister": false,
    "status": "active"
  },
  {
    "official_id": "0006717",
    "name": "トップボーイ新大駅前店",
    "address": "新潟市西区坂井867 リバティープラザ新大駅前102",
    "prefecture": "新潟県",
    "lat": 37.86833,
    "lng": 138.95716,
    "is_wpn_premium": false,
    "is_teaching_meister": false,
    "status": "active"
  },
  {
    "official_id": "0007947",
    "name": "おもちゃのファミリアパルム三条店",
    "address": "三条市神明町2-1 パルム2 1F",
    "prefecture": "新潟県",
    "lat": 37.62981,
    "lng": 138.96071,
    "is_wpn_premium": false,
    "is_teaching_meister": false,
    "status": "active"
  },
  {
    "official_id": "0005628",
    "name": "デュエルガルド中央町店",
    "address": "新発田市中央町2-1-14 駅前中央商店街通り上野ビル1F",
    "prefecture": "新潟県",
    "lat": 37.94711,
    "lng": 139.32881,
    "is_wpn_premium": false,
    "is_teaching_meister": false,
    "status": "active"
  },
  {
    "official_id": "0008594",
    "name": "おもちゃのファミリア原信吉田店",
    "address": "燕市吉田東栄町13-15",
    "prefecture": "新潟県",
    "lat": 37.68129,
    "lng": 138.87878,
    "is_wpn_premium": false,
    "is_teaching_meister": false,
    "status": "active"
  },
  {
    "official_id": "0008184",
    "name": "はま屋里吉店",
    "address": "甲府市里吉4-5-14",
    "prefecture": "山梨県",
    "lat": 35.64915,
    "lng": 138.58846,
    "is_wpn_premium": false,
    "is_teaching_meister": false,
    "status": "active"
  },
  {
    "official_id": "0006524",
    "name": "キューピット",
    "address": "南都留郡富士河口湖町船津4095-1",
    "prefecture": "山梨県",
    "lat": 35.50159,
    "lng": 138.7677,
    "is_wpn_premium": false,
    "is_teaching_meister": false,
    "status": "active"
  },
  {
    "official_id": "0017037",
    "name": "CARDBOX柳正堂書店イオンタウン山梨中央店",
    "address": "中央市下河東3053-1",
    "prefecture": "山梨県",
    "lat": 35.608594,
    "lng": 138.541739,
    "is_wpn_premium": false,
    "is_teaching_meister": false,
    "status": "active"
  },
  {
    "official_id": "0020506",
    "name": "晴れる屋長野店",
    "address": "長野市高田1758番地 1F-区画番号120　MEGAドン・キホーテ 長野店",
    "prefecture": "長野県",
    "lat": 36.642239,
    "lng": 138.215937,
    "is_wpn_premium": false,
    "is_teaching_meister": false,
    "status": "active"
  },
  {
    "official_id": "0007902",
    "name": "平安堂若槻店",
    "address": "長野市稲田1-14-21",
    "prefecture": "長野県",
    "lat": 36.67527,
    "lng": 138.21763,
    "is_wpn_premium": false,
    "is_teaching_meister": false,
    "status": "active"
  },
  {
    "official_id": "0009794",
    "name": "平安堂川中島店",
    "address": "長野市川中島町御厨堂野946-3",
    "prefecture": "長野県",
    "lat": 36.59745,
    "lng": 138.15881,
    "is_wpn_premium": false,
    "is_teaching_meister": false,
    "status": "active"
  },
  {
    "official_id": "0006198",
    "name": "再起堂書店",
    "address": "須坂市須坂南横町1612",
    "prefecture": "長野県",
    "lat": 36.65417,
    "lng": 138.30334,
    "is_wpn_premium": false,
    "is_teaching_meister": false,
    "status": "active"
  },
  {
    "official_id": "0007866",
    "name": "再楽リプラス佐久本店",
    "address": "佐久市猿久保896-1",
    "prefecture": "長野県",
    "lat": 36.25583,
    "lng": 138.48058,
    "is_wpn_premium": false,
    "is_teaching_meister": false,
    "status": "active"
  },
  {
    "official_id": "0012321",
    "name": "はま屋デリシア丸子店",
    "address": "上田市長瀬2843-4",
    "prefecture": "長野県",
    "lat": 36.35833,
    "lng": 138.29015,
    "is_wpn_premium": false,
    "is_teaching_meister": false,
    "status": "active"
  },
  {
    "official_id": "0008321",
    "name": "平安堂更埴店",
    "address": "千曲市桜堂字西沖380-3",
    "prefecture": "長野県",
    "lat": 36.52864,
    "lng": 138.12308,
    "is_wpn_premium": false,
    "is_teaching_meister": false,
    "status": "active"
  },
  {
    "official_id": "0006933",
    "name": "タッチ松本店",
    "address": "松本市巾上12-7",
    "prefecture": "長野県",
    "lat": 36.22892,
    "lng": 137.96157,
    "is_wpn_premium": false,
    "is_teaching_meister": false,
    "status": "active"
  },
  {
    "official_id": "0006059",
    "name": "はま屋松本店",
    "address": "松本市双葉12-56",
    "prefecture": "長野県",
    "lat": 36.21074,
    "lng": 137.962,
    "is_wpn_premium": false,
    "is_teaching_meister": false,
    "status": "active"
  },
  {
    "official_id": "0007830",
    "name": "プラネッツ",
    "address": "諏訪市諏訪1-2-3",
    "prefecture": "長野県",
    "lat": 36.04612,
    "lng": 138.11697,
    "is_wpn_premium": false,
    "is_teaching_meister": false,
    "status": "active"
  },
  {
    "official_id": "0012042",
    "name": "平安堂座光寺店",
    "address": "飯田市座光寺3715",
    "prefecture": "長野県",
    "lat": 35.53098,
    "lng": 137.85985,
    "is_wpn_premium": false,
    "is_teaching_meister": false,
    "status": "active"
  },
  {
    "official_id": "0012479",
    "name": "アピアランド飯田店",
    "address": "飯田市知久町4-1202",
    "prefecture": "長野県",
    "lat": 35.51621,
    "lng": 137.82113,
    "is_wpn_premium": false,
    "is_teaching_meister": false,
    "status": "active"
  },
  {
    "official_id": "0016854",
    "name": "TCG SHOP Suzunone",
    "address": "塩尻市広丘原新田215-16 信越報知ビル2F",
    "prefecture": "長野県",
    "lat": 36.1485369024956,
    "lng": 137.94660849518712,
    "is_wpn_premium": false,
    "is_teaching_meister": false,
    "status": "active"
  },
  {
    "official_id": "0012859",
    "name": "ブックマーケット上飯野店",
    "address": "富山市上飯野30-2",
    "prefecture": "富山県",
    "lat": 36.71039,
    "lng": 137.25006,
    "is_wpn_premium": false,
    "is_teaching_meister": false,
    "status": "active"
  },
  {
    "official_id": "0011379",
    "name": "ブックマーケット高岡店",
    "address": "高岡市野村1658-1",
    "prefecture": "富山県",
    "lat": 36.75929,
    "lng": 137.04307,
    "is_wpn_premium": false,
    "is_teaching_meister": false,
    "status": "active"
  },
  {
    "official_id": "0014850",
    "name": "高岡すぱいらる",
    "address": "高岡市末広町7-4",
    "prefecture": "富山県",
    "lat": 36.7436648,
    "lng": 137.0138451,
    "is_wpn_premium": false,
    "is_teaching_meister": false,
    "status": "active"
  },
  {
    "official_id": "0008074",
    "name": "ブックマーケット砺波店",
    "address": "砺波市太郎丸584",
    "prefecture": "富山県",
    "lat": 36.63151,
    "lng": 136.96186,
    "is_wpn_premium": false,
    "is_teaching_meister": false,
    "status": "active"
  },
  {
    "official_id": "0009888",
    "name": "おもちゃのバンビ本郷店",
    "address": "富山市本郷新16-8",
    "prefecture": "富山県",
    "lat": 36.66833,
    "lng": 137.2291,
    "is_wpn_premium": false,
    "is_teaching_meister": false,
    "status": "active"
  },
  {
    "official_id": "0015136",
    "name": "トーナメントセンターバトロコ金沢駅前",
    "address": "金沢市此花町3-2 B1",
    "prefecture": "石川県",
    "lat": 36.576854,
    "lng": 136.651319,
    "is_wpn_premium": false,
    "is_teaching_meister": false,
    "status": "active"
  },
  {
    "official_id": "0009746",
    "name": "GAME BAR - Hello, world!",
    "address": "金沢市此花町9-17 米沢ビル3F",
    "prefecture": "石川県",
    "lat": 36.57842,
    "lng": 136.65204,
    "is_wpn_premium": false,
    "is_teaching_meister": false,
    "status": "active"
  },
  {
    "official_id": "0015340",
    "name": "バトロコsatellite金沢香林坊",
    "address": "金沢市香林坊2-1-1 香林坊東急スクエア4F",
    "prefecture": "石川県",
    "lat": 36.56239,
    "lng": 136.65317,
    "is_wpn_premium": false,
    "is_teaching_meister": false,
    "status": "active"
  },
  {
    "official_id": "0007225",
    "name": "カメレオンクラブ福久店",
    "address": "金沢市福久東1-88",
    "prefecture": "石川県",
    "lat": 36.61883,
    "lng": 136.68675,
    "is_wpn_premium": false,
    "is_teaching_meister": false,
    "status": "active"
  },
  {
    "official_id": "0011399",
    "name": "ブックマーケット野々市新庄店",
    "address": "野々市市上林４丁目666",
    "prefecture": "石川県",
    "lat": 36.503844,
    "lng": 136.605906,
    "is_wpn_premium": false,
    "is_teaching_meister": false,
    "status": "active"
  },
  {
    "official_id": "0010647",
    "name": "北国書林辰口店",
    "address": "能美市辰口町辰口520-1",
    "prefecture": "石川県",
    "lat": 36.44258,
    "lng": 136.54646,
    "is_wpn_premium": false,
    "is_teaching_meister": false,
    "status": "active"
  },
  {
    "official_id": "0006932",
    "name": "勝木書店SuperKaBoS新二の宮店",
    "address": "福井市二の宮5-18-8",
    "prefecture": "福井県",
    "lat": 36.08701,
    "lng": 136.2082,
    "is_wpn_premium": false,
    "is_teaching_meister": false,
    "status": "active"
  },
  {
    "official_id": "0014899",
    "name": "TSUTAYA福井高柳店",
    "address": "福井市高柳3丁目2203",
    "prefecture": "福井県",
    "lat": 36.093082,
    "lng": 136.241664,
    "is_wpn_premium": false,
    "is_teaching_meister": false,
    "status": "active"
  },
  {
    "official_id": "0017582",
    "name": "勝木書店大野店",
    "address": "大野市国時町109",
    "prefecture": "福井県",
    "lat": 35.976719,
    "lng": 136.502471,
    "is_wpn_premium": false,
    "is_teaching_meister": false,
    "status": "active"
  },
  {
    "official_id": "0008340",
    "name": "SuperKaBoS+GEO敦賀店",
    "address": "敦賀市木崎13-28",
    "prefecture": "福井県",
    "lat": 35.64052,
    "lng": 136.04755,
    "is_wpn_premium": false,
    "is_teaching_meister": false,
    "status": "active"
  },
  {
    "official_id": "0007555",
    "name": "サイト玩具店",
    "address": "越前市京町1-2-11",
    "prefecture": "福井県",
    "lat": 35.90187,
    "lng": 136.16451,
    "is_wpn_premium": false,
    "is_teaching_meister": false,
    "status": "active"
  },
  {
    "official_id": "0018710",
    "name": "トレカのちかてつ",
    "address": "鯖江市下河端町4-17-１",
    "prefecture": "福井県",
    "lat": 35.9680418,
    "lng": 136.1877714,
    "is_wpn_premium": false,
    "is_teaching_meister": false,
    "status": "active"
  },
  {
    "official_id": "0006550",
    "name": "Cardshop Serra",
    "address": "沼津市大手町5-7-5 つるかめ仲見世ビル4F",
    "prefecture": "静岡県",
    "lat": 35.10011,
    "lng": 138.85801,
    "is_wpn_premium": false,
    "is_teaching_meister": false,
    "status": "active"
  },
  {
    "official_id": "0011975",
    "name": "ミシマトイス",
    "address": "三島市本町3-35",
    "prefecture": "静岡県",
    "lat": 35.11948,
    "lng": 138.91403,
    "is_wpn_premium": false,
    "is_teaching_meister": false,
    "status": "active"
  },
  {
    "official_id": "0010781",
    "name": "ゲームスペースあなーば",
    "address": "富士市本市場147-6",
    "prefecture": "静岡県",
    "lat": 35.15747,
    "lng": 138.65437,
    "is_wpn_premium": false,
    "is_teaching_meister": false,
    "status": "active"
  },
  {
    "official_id": "0006114",
    "name": "駿河屋 本店 駿河屋ビル",
    "address": "静岡市葵区伝馬町5-4 ビル4F",
    "prefecture": "静岡県",
    "lat": 34.974063,
    "lng": 138.387923,
    "is_wpn_premium": false,
    "is_teaching_meister": false,
    "status": "active"
  },
  {
    "official_id": "0009124",
    "name": "TCGショップコロッサス",
    "address": "静岡市葵区平和3-18-8",
    "prefecture": "静岡県",
    "lat": 34.99675,
    "lng": 138.36812,
    "is_wpn_premium": false,
    "is_teaching_meister": false,
    "status": "active"
  },
  {
    "official_id": "0008299",
    "name": "BambooPaddy",
    "address": "焼津市小川2789 2F",
    "prefecture": "静岡県",
    "lat": 34.84819,
    "lng": 138.3115,
    "is_wpn_premium": false,
    "is_teaching_meister": false,
    "status": "active"
  },
  {
    "official_id": "0010440",
    "name": "ピノキオ",
    "address": "島田市本通7-8455",
    "prefecture": "静岡県",
    "lat": 34.83285,
    "lng": 138.18273,
    "is_wpn_premium": false,
    "is_teaching_meister": false,
    "status": "active"
  },
  {
    "official_id": "0010097",
    "name": "トレカショップねくすと",
    "address": "浜松市南区東若林町11-1 MEGAドン・キホーテ1F",
    "prefecture": "静岡県",
    "lat": 34.69202,
    "lng": 137.71431,
    "is_wpn_premium": false,
    "is_teaching_meister": false,
    "status": "active"
  },
  {
    "official_id": "0018547",
    "name": "デュエルキング 掛川店",
    "address": "掛川市宮脇1-18-12",
    "prefecture": "静岡県",
    "lat": 34.7783715,
    "lng": 138.030191,
    "is_wpn_premium": false,
    "is_teaching_meister": false,
    "status": "active"
  },
  {
    "official_id": "0008293",
    "name": "デュエルキング",
    "address": "磐田市二之宮東2-3",
    "prefecture": "静岡県",
    "lat": 34.71711,
    "lng": 137.91,
    "is_wpn_premium": false,
    "is_teaching_meister": false,
    "status": "active"
  },
  {
    "official_id": "0008180",
    "name": "トレカチャンピオン豊橋牛川店",
    "address": "豊橋市牛川通2-1-2",
    "prefecture": "愛知県",
    "lat": 34.78034,
    "lng": 137.4208,
    "is_wpn_premium": false,
    "is_teaching_meister": false,
    "status": "active"
  },
  {
    "official_id": "0006919",
    "name": "トレカステーション豊橋店",
    "address": "豊橋市広小路1-43 大木屋ビルB1F",
    "prefecture": "愛知県",
    "lat": 34.76379,
    "lng": 137.38379,
    "is_wpn_premium": false,
    "is_teaching_meister": false,
    "status": "active"
  },
  {
    "official_id": "0010550",
    "name": "おもちゃのピッコロ本店",
    "address": "豊川市開運通1-27",
    "prefecture": "愛知県",
    "lat": 34.82552,
    "lng": 137.38845,
    "is_wpn_premium": false,
    "is_teaching_meister": false,
    "status": "active"
  },
  {
    "official_id": "0006592",
    "name": "ミントひな庄",
    "address": "蒲郡市中央本町3-8",
    "prefecture": "愛知県",
    "lat": 34.82783,
    "lng": 137.22621,
    "is_wpn_premium": false,
    "is_teaching_meister": false,
    "status": "active"
  },
  {
    "official_id": "0012694",
    "name": "メモリーコーポレーション",
    "address": "岡崎市美合町生田201",
    "prefecture": "愛知県",
    "lat": 34.92619,
    "lng": 137.19801,
    "is_wpn_premium": false,
    "is_teaching_meister": false,
    "status": "active"
  },
  {
    "official_id": "0016794",
    "name": "カードショップホビビ 岡崎店",
    "address": "岡崎市井田西町2-15",
    "prefecture": "愛知県",
    "lat": 34.974967,
    "lng": 137.159615,
    "is_wpn_premium": false,
    "is_teaching_meister": false,
    "status": "active"
  },
  {
    "official_id": "0006054",
    "name": "プレイズ西尾シャオ店",
    "address": "西尾市下町神明下57 ふぁみーず西尾シャオ店内",
    "prefecture": "愛知県",
    "lat": 34.86847,
    "lng": 137.04447,
    "is_wpn_premium": false,
    "is_teaching_meister": false,
    "status": "active"
  },
  {
    "official_id": "0012472",
    "name": "おもちゃのハッピーランド・はだ",
    "address": "安城市小堤町1-5",
    "prefecture": "愛知県",
    "lat": 34.9546,
    "lng": 137.08306,
    "is_wpn_premium": false,
    "is_teaching_meister": false,
    "status": "active"
  },
  {
    "official_id": "0008368",
    "name": "すまいるキング安城店",
    "address": "安城市住吉町5-13-40 2F",
    "prefecture": "愛知県",
    "lat": 34.9886,
    "lng": 137.07492,
    "is_wpn_premium": false,
    "is_teaching_meister": false,
    "status": "active"
  },
  {
    "official_id": "0010061",
    "name": "ソフトステーションチャンプ",
    "address": "名古屋市西区新道2-6-9",
    "prefecture": "愛知県",
    "lat": 35.17813,
    "lng": 136.88809,
    "is_wpn_premium": false,
    "is_teaching_meister": false,
    "status": "active"
  },
  {
    "official_id": "0014455",
    "name": "Meta Games",
    "address": "名古屋市中村区椿町19番3号カニエビル5F",
    "prefecture": "愛知県",
    "lat": 35.16767,
    "lng": 136.87965,
    "is_wpn_premium": false,
    "is_teaching_meister": false,
    "status": "active"
  },
  {
    "official_id": "0018128",
    "name": "トレカっち",
    "address": "名古屋市中村区椿町19-13カニエビル5F",
    "prefecture": "愛知県",
    "lat": 35.168,
    "lng": 136.879536,
    "is_wpn_premium": false,
    "is_teaching_meister": false,
    "status": "active"
  },
  {
    "official_id": "0007234",
    "name": "竜星の嵐名古屋店",
    "address": "名古屋市中村区椿町21-5 桜木ビル3F",
    "prefecture": "愛知県",
    "lat": 35.1679,
    "lng": 136.87931,
    "is_wpn_premium": false,
    "is_teaching_meister": false,
    "status": "active"
  },
  {
    "official_id": "0009272",
    "name": "ホビーステーション名駅店",
    "address": "名古屋市中村区椿町20-12",
    "prefecture": "愛知県",
    "lat": 35.16812,
    "lng": 136.87967,
    "is_wpn_premium": false,
    "is_teaching_meister": false,
    "status": "active"
  },
  {
    "official_id": "0006083",
    "name": "TCGショップ193名駅店",
    "address": "名古屋市中村区竹橋町5-12 イトゼンビル1F",
    "prefecture": "愛知県",
    "lat": 35.16775,
    "lng": 136.87819,
    "is_wpn_premium": false,
    "is_teaching_meister": false,
    "status": "active"
  },
  {
    "official_id": "0014431",
    "name": "TCG/Board Game Cafe&Bar TOM 名古屋店",
    "address": "名古屋市中区新栄1丁目12-30 ホワイトプラザB1階",
    "prefecture": "愛知県",
    "lat": 35.16711,
    "lng": 136.91533,
    "is_wpn_premium": false,
    "is_teaching_meister": false,
    "status": "active"
  },
  {
    "official_id": "0017587",
    "name": "Misteria",
    "address": "名古屋市中区栄3丁目31番7号",
    "prefecture": "愛知県",
    "lat": 35.163925,
    "lng": 136.908324,
    "is_wpn_premium": false,
    "is_teaching_meister": false,
    "status": "active"
  },
  {
    "official_id": "0013774",
    "name": "晴れる屋大須店",
    "address": "名古屋市中区大須4丁目11-5",
    "prefecture": "愛知県",
    "lat": 35.15839,
    "lng": 136.9063,
    "is_wpn_premium": false,
    "is_teaching_meister": false,
    "status": "active"
  },
  {
    "official_id": "0006110",
    "name": "アドバンテージ大須2号店",
    "address": "名古屋市中区大須3-12-43 安田ビル5F",
    "prefecture": "愛知県",
    "lat": 35.16097,
    "lng": 136.9038,
    "is_wpn_premium": false,
    "is_teaching_meister": false,
    "status": "active"
  },
  {
    "official_id": "0006566",
    "name": "イエローサブマリン名古屋GAMESHOP",
    "address": "名古屋市中区大須3-11-19 OAビル6F",
    "prefecture": "愛知県",
    "lat": 35.16052,
    "lng": 136.90502,
    "is_wpn_premium": false,
    "is_teaching_meister": false,
    "status": "active"
  },
  {
    "official_id": "0007242",
    "name": "TCGショップ193大須店",
    "address": "名古屋市中区大須3-26-21",
    "prefecture": "愛知県",
    "lat": 35.15929,
    "lng": 136.90338,
    "is_wpn_premium": false,
    "is_teaching_meister": false,
    "status": "active"
  },
  {
    "official_id": "0008000",
    "name": "アメニティードリーム大須店",
    "address": "名古屋市中区大須3-30-60 OSU301ビル 2F",
    "prefecture": "愛知県",
    "lat": 35.15884,
    "lng": 136.90533,
    "is_wpn_premium": false,
    "is_teaching_meister": false,
    "status": "active"
  },
  {
    "official_id": "0008408",
    "name": "BIG MAGIC名古屋店",
    "address": "名古屋市中区大須4-1-3 名商ビル2F",
    "prefecture": "愛知県",
    "lat": 35.16179,
    "lng": 136.90684,
    "is_wpn_premium": false,
    "is_teaching_meister": false,
    "status": "active"
  },
  {
    "official_id": "0008633",
    "name": "Dice Roll",
    "address": "名古屋市中区大須4-2-47 赤門ビル3F",
    "prefecture": "愛知県",
    "lat": 35.16035,
    "lng": 136.90643,
    "is_wpn_premium": false,
    "is_teaching_meister": false,
    "status": "active"
  },
  {
    "official_id": "0009871",
    "name": "カードコレクション",
    "address": "名古屋市北区上飯田北町2-61-1 レジデンス北町1F",
    "prefecture": "愛知県",
    "lat": 35.205,
    "lng": 136.931,
    "is_wpn_premium": false,
    "is_teaching_meister": false,
    "status": "active"
  },
  {
    "official_id": "0007536",
    "name": "プラスアルファ",
    "address": "名古屋市名東区新宿1-25",
    "prefecture": "愛知県",
    "lat": 35.15418,
    "lng": 137.00941,
    "is_wpn_premium": false,
    "is_teaching_meister": false,
    "status": "active"
  },
  {
    "official_id": "0010054",
    "name": "カードショップもののふ",
    "address": "名古屋市天白区野並3-196 スライブ野並1F",
    "prefecture": "愛知県",
    "lat": 35.10277,
    "lng": 136.95648,
    "is_wpn_premium": false,
    "is_teaching_meister": false,
    "status": "active"
  },
  {
    "official_id": "0013101",
    "name": "カードショップホビビ赤池店",
    "address": "日進市赤池1-2812",
    "prefecture": "愛知県",
    "lat": 35.12072,
    "lng": 137.01857,
    "is_wpn_premium": false,
    "is_teaching_meister": false,
    "status": "active"
  },
  {
    "official_id": "0014178",
    "name": "カードショップホビビ豊田VITS店",
    "address": "豊田市西町5-5 VITS豊田タウン2F",
    "prefecture": "愛知県",
    "lat": 35.0851,
    "lng": 137.15449,
    "is_wpn_premium": false,
    "is_teaching_meister": false,
    "status": "active"
  },
  {
    "official_id": "0007727",
    "name": "お宝創庫共和店",
    "address": "大府市共栄町7-9-14",
    "prefecture": "愛知県",
    "lat": 35.03813,
    "lng": 136.95728,
    "is_wpn_premium": false,
    "is_teaching_meister": false,
    "status": "active"
  },
  {
    "official_id": "0010303",
    "name": "プレイズ半田店",
    "address": "半田市山代町1-106-7 三栄ビル1F",
    "prefecture": "愛知県",
    "lat": 34.88912,
    "lng": 136.90704,
    "is_wpn_premium": false,
    "is_teaching_meister": false,
    "status": "active"
  },
  {
    "official_id": "0012206",
    "name": "宝島長久手店",
    "address": "長久手市香桶101",
    "prefecture": "愛知県",
    "lat": 35.17796,
    "lng": 137.04603,
    "is_wpn_premium": false,
    "is_teaching_meister": false,
    "status": "active"
  },
  {
    "official_id": "0014388",
    "name": "宝島師勝店",
    "address": "北名古屋市高田寺東の川33",
    "prefecture": "愛知県",
    "lat": 35.24093,
    "lng": 136.89621,
    "is_wpn_premium": false,
    "is_teaching_meister": false,
    "status": "active"
  },
  {
    "official_id": "0006819",
    "name": "トレカチャンピオン江南店",
    "address": "江南市江森町中210",
    "prefecture": "愛知県",
    "lat": 35.346,
    "lng": 136.89114,
    "is_wpn_premium": false,
    "is_teaching_meister": false,
    "status": "active"
  },
  {
    "official_id": "0005750",
    "name": "尾張堂",
    "address": "江南市東野町神田101",
    "prefecture": "愛知県",
    "lat": 35.33903,
    "lng": 136.85372,
    "is_wpn_premium": false,
    "is_teaching_meister": false,
    "status": "active"
  },
  {
    "official_id": "0006995",
    "name": "ビデオインアメリカ一宮本店",
    "address": "一宮市妙興寺1-2-8",
    "prefecture": "愛知県",
    "lat": 35.28713,
    "lng": 136.80247,
    "is_wpn_premium": false,
    "is_teaching_meister": false,
    "status": "active"
  },
  {
    "official_id": "0014368",
    "name": "宝島一宮店",
    "address": "一宮市大和町馬引古宮32-1",
    "prefecture": "愛知県",
    "lat": 35.31029,
    "lng": 136.78008,
    "is_wpn_premium": false,
    "is_teaching_meister": false,
    "status": "active"
  },
  {
    "official_id": "0018551",
    "name": "紙屋敷",
    "address": "稲沢市小池2丁目17-6小崎ビル1F",
    "prefecture": "愛知県",
    "lat": 35.249104,
    "lng": 136.809691,
    "is_wpn_premium": false,
    "is_teaching_meister": false,
    "status": "active"
  },
  {
    "official_id": "0006867",
    "name": "後藤商店",
    "address": "津島市橋詰町1-35",
    "prefecture": "愛知県",
    "lat": 35.17727,
    "lng": 136.72334,
    "is_wpn_premium": false,
    "is_teaching_meister": false,
    "status": "active"
  },
  {
    "official_id": "0006125",
    "name": "パピー弥富店",
    "address": "弥富市鯏浦町南前新田7-1",
    "prefecture": "愛知県",
    "lat": 35.11156,
    "lng": 136.73045,
    "is_wpn_premium": false,
    "is_teaching_meister": false,
    "status": "active"
  },
  {
    "official_id": "0014447",
    "name": "宝島高蔵寺店",
    "address": "春日井市中央台1-2-2F",
    "prefecture": "愛知県",
    "lat": 35.28167,
    "lng": 137.04796,
    "is_wpn_premium": false,
    "is_teaching_meister": false,
    "status": "active"
  },
  {
    "official_id": "0006776",
    "name": "フェイズ岐阜店",
    "address": "岐阜市吉野町5-14 深尾ビル1F",
    "prefecture": "岐阜県",
    "lat": 35.410981,
    "lng": 136.757368,
    "is_wpn_premium": false,
    "is_teaching_meister": false,
    "status": "active"
  },